%time,field.header.seq,field.header.stamp,field.header.frame_id,field.twist.linear.x,field.twist.linear.y,field.twist.linear.z,field.twist.angular.x,field.twist.angular.y,field.twist.angular.z
1536240501530967062,21213,1536240501504446578,Quadricopter_base,-1.32648856379e-05,0.00116438406985,-0.000568628311157,0.000218592962483,0.000439774710685,-0.00200271699578
1536240501584620095,21214,1536240501560344700,Quadricopter_base,-8.03908915259e-06,0.00116703123786,0.000568628311157,-0.000212000217289,-0.000411815824918,-0.0019550381694
1536240501635475626,21215,1536240501610064881,Quadricopter_base,-1.23920908663e-05,0.00117557332851,-0.000569820404053,0.000145530226291,0.000321665866068,-0.00195622839965
1536240501683457316,21216,1536240501665071882,Quadricopter_base,-7.16801150702e-06,0.00117822224274,0.000569820404053,-0.00023043967667,-0.000481618742924,-0.00195026618894
1536240501734529611,21217,1536240501709382556,Quadricopter_base,-8.38370760903e-06,0.00116702890955,-0.000569820404053,0.000215650521568,0.00044036336476,-0.00199794955552
1536240501787085257,21218,1536240501761575743,Quadricopter_base,-1.27092935145e-05,0.00118623196613,0.000569820404053,-0.000200083610252,-0.000405947939726,-0.00195145909674
1536240501849832161,21219,1536240501822434547,Quadricopter_base,-6.4781634137e-06,0.00116808793973,-0.000568628311157,0.000182340765605,0.000375766219804,-0.00198602862656
1536240501911736134,21220,1536240501883229372,Quadricopter_base,-0.000969454704318,0.00114764645696,0.000571012496948,0.0754198729992,-0.0366536080837,-0.00179755676072
1536240501968113700,21221,1536240501940423135,Quadricopter_base,-0.00465329689905,0.00112816307228,-0.000473260879517,0.448502063751,-0.218637511134,0.000684439903125
1536240502035139861,21222,1536240501997807281,Quadricopter_base,-0.000784715521149,0.0012395727681,0.0010097026825,0.839025080204,-0.423401266336,0.00547057250515
1536240502103385666,21223,1536240502073020285,Quadricopter_base,0.0255467314273,0.0011021560058,-0.000472068873933,0.864455163479,-0.434722363949,0.00391668500379
1536240502162008284,21224,1536240502132776902,Quadricopter_base,0.0783170908689,0.000567626208067,-0.00192523025908,0.710358500481,-0.344328165054,0.000502032227814
1536240502219675780,21225,1536240502193186552,Quadricopter_base,0.151077926159,-0.000189427271835,-0.00819444656372,0.586244881153,-0.273482769728,-0.00103757414035
1536240502282946727,21226,1536240502253708899,Quadricopter_base,0.245351478457,-0.000594444340095,-0.0155985374004,0.179338485003,-0.0773097276688,-0.00602312665433
1536240502348522850,21227,1536240502318332370,Quadricopter_base,0.351286292076,-2.14875763049e-05,-0.0269162654877,-0.427944511175,0.227748900652,-0.000967200146988
1536240502414696317,21228,1536240502382586628,Quadricopter_base,0.453049302101,0.00223794602789,-0.0334429740906,-1.00412499905,0.49673679471,0.00899632275105
1536240502481188313,21229,1536240502445346541,Quadricopter_base,0.531289637089,0.00478905439377,-0.036495923996,-1.29928457737,0.629019200802,0.0154926106334
1536240502549826574,21230,1536240502513972109,Quadricopter_base,0.572349786758,0.00622999668121,-0.0320780277252,-1.20868730545,0.578553259373,0.00859309732914
1536240502620853961,21231,1536240502586020515,Quadricopter_base,0.578030943871,0.00625382363796,-0.0283443890512,-0.971543252468,0.471669197083,-0.00163580151275
1536240502678876868,21232,1536240502652753364,Quadricopter_base,0.547687470913,0.00601650774479,-0.0237381458282,-0.288556694984,0.148535832763,-0.0138140283525
1536240502736725210,21233,1536240502707438211,Quadricopter_base,0.500180602074,0.00653336942196,-0.0228857975453,0.482050657272,-0.249675288796,-0.0108395908028
1536240502790776713,21234,1536240502765184200,Quadricopter_base,0.463533192873,0.00665512681007,-0.0186812877655,0.694607019424,-0.363156020641,-0.00590613484383
1536240502851093330,21235,1536240502823587009,Quadricopter_base,0.454758197069,0.00621995329857,-0.0158095359802,0.026426596567,-0.0217923335731,-0.0127296699211
1536240502908404253,21236,1536240502881148686,Quadricopter_base,0.457980692387,0.00517371296883,-0.0103521384299,-0.836503744125,0.438294261694,-0.00141407502815
1536240502962753358,21237,1536240502936494992,Quadricopter_base,0.440789788961,0.00383652746677,-0.00751614477485,-1.07113111019,0.554937601089,0.00697762798518
1536240503017535528,21238,1536240502992941122,Quadricopter_base,0.389458119869,0.00306312739849,-0.00532388780266,-0.806613862514,0.395459830761,0.0016556691844
1536240503074232363,21239,1536240503047964393,Quadricopter_base,0.310818821192,0.00295374542475,-0.00953912734985,-0.312849909067,0.134186953306,-0.00541364960372
1536240503126115929,21240,1536240503099558312,Quadricopter_base,0.214287653565,0.00307933986187,-0.0144076319411,0.404775291681,-0.21938714385,-0.00498220697045
1536240503179994984,21241,1536240503151874389,Quadricopter_base,0.122274532914,0.00242729857564,-0.019782781601,0.977752685547,-0.494110167027,0.00346225453541
1536240503242495884,21242,1536240503211318569,Quadricopter_base,0.0566888749599,0.00102806836367,-0.017865896225,1.03184449673,-0.505318880081,0.00116211781278
1536240503305980909,21243,1536240503277950225,Quadricopter_base,0.021861653775,-0.000136625953019,-0.0150322914124,0.814713478088,-0.387669980526,-0.00610142434016
1536240503363413864,21244,1536240503336753856,Quadricopter_base,0.0146948834881,-0.000470162369311,-0.00906109809875,0.423900157213,-0.208872139454,-0.0115707935765
1536240503419465407,21245,1536240503391711456,Quadricopter_base,0.0281877480447,-0.000443053431809,-0.005863904953,-0.315639793873,0.154884725809,-0.0105882659554
1536240503475862603,21246,1536240503449101300,Quadricopter_base,0.0407883822918,-0.000630598515272,-0.000278949853964,-0.933993160725,0.481975346804,0.00349064846523
1536240503535870184,21247,1536240503508226778,Quadricopter_base,0.0282531809062,-0.000809155404568,0.00269532203674,-0.990262746811,0.51526594162,0.00625470932573
1536240503586681614,21248,1536240503561232599,Quadricopter_base,-0.0162464380264,-0.000619504135102,0.00544786453247,-0.710158288479,0.359453231096,-0.000973403861281
1536240503643344740,21249,1536240503616930190,Quadricopter_base,-0.0857507437468,-0.000329855800373,0.00244736718014,-0.209277391434,0.0978373065591,-0.00784357823431
1536240503694261625,21250,1536240503668194887,Quadricopter_base,-0.170477181673,-0.000581063330173,-0.000529290584382,0.509510278702,-0.269944697618,-0.0046619749628
1536240503764489863,21251,1536240503727261731,Quadricopter_base,-0.247751861811,-0.00164859741926,-0.00385046051815,1.06444549561,-0.546752393246,0.00568496948108
1536240503835087462,21252,1536240503797159617,Quadricopter_base,-0.295284241438,-0.00284762680531,-0.000746250152588,1.07586658001,-0.541139125824,0.0027998003643
1536240503906894852,21253,1536240503869861476,Quadricopter_base,-0.311562120914,-0.00344318896532,0.00192761525977,0.921191513538,-0.447833061218,-0.00319750932977
1536240503972076877,21254,1536240503945797476,Quadricopter_base,-0.298877179623,-0.00308308750391,0.00650048349053,0.673955619335,-0.338224709034,-0.0086702350527
1536240504029198415,21255,1536240504001470765,Quadricopter_base,-0.263702094555,-0.00250222533941,0.00714063597843,0.313180446625,-0.159526750445,-0.0114600732923
1536240504085740829,21256,1536240504059385492,Quadricopter_base,-0.219615101814,-0.00187013298273,0.00905632972717,0.316246688366,-0.157643198967,-0.00800400227308
1536240504142609532,21257,1536240504114672028,Quadricopter_base,-0.17047342658,-0.00100776564796,0.00810980889946,0.558573961258,-0.290376514196,-0.00469448184595
1536240504194152515,21258,1536240504166953375,Quadricopter_base,-0.106191664934,-0.000376373558538,0.00764489127323,0.631626725197,-0.328634917736,-0.00322380661964
1536240504249912646,21259,1536240504223387219,Quadricopter_base,-0.0239419024438,-0.000328591093421,0.00210642814636,0.537306189537,-0.265196889639,-0.00200161384419
1536240504308435007,21260,1536240504280571376,Quadricopter_base,0.0753714963794,-0.000538792461157,-0.0041139125824,0.401715308428,-0.186013102531,-0.00135148433037
1536240504368867024,21261,1536240504340692002,Quadricopter_base,0.185650408268,-0.00068131822627,-0.0145268496126,0.320523649454,-0.144439846277,-0.00171341758687
1536240504429620261,21262,1536240504400499818,Quadricopter_base,0.305840075016,-0.000678561569657,-0.0240624006838,0.272850364447,-0.129400998354,-0.004013705533
1536240504484119582,21263,1536240504457259382,Quadricopter_base,0.433858394623,-0.000649630615953,-0.036909583956,0.18378905952,-0.0859816744924,-0.0044303284958
1536240504537632383,21264,1536240504511214561,Quadricopter_base,0.569404959679,-0.00031061397749,-0.0480496920645,0.05471906811,-0.0191001445055,-0.00335222901776
1536240504595039406,21265,1536240504568912492,Quadricopter_base,0.707618653774,0.000689477077685,-0.0608289353549,-0.0768436044455,0.0460979305208,-0.00258251908235
1536240504651107408,21266,1536240504621001069,Quadricopter_base,0.846087098122,0.00271216081455,-0.0695478916168,-0.191776990891,0.0933260545135,-0.00413006590679
1536240504723602948,21267,1536240504683763588,Quadricopter_base,0.98037558794,0.00554051948711,-0.0778674930334,-0.285098403692,0.131511136889,-0.00510541629046
1536240504789458558,21268,1536240504762178076,Quadricopter_base,1.10877203941,0.00886434409767,-0.0806140825152,-0.360235005617,0.163681894541,-0.00491408910602
1536240504840897839,21269,1536240504813799751,Quadricopter_base,1.22869479656,0.0125988125801,-0.0823426246643,-0.462449163198,0.214062035084,-0.00323516991921
1536240504896889855,21270,1536240504869799410,Quadricopter_base,1.33786177635,0.0165191888809,-0.0781118869781,-0.565633833408,0.26549744606,-0.00128276809119
1536240504949319946,21271,1536240504922460156,Quadricopter_base,1.43136882782,0.0197176337242,-0.0724792405963,-0.553098380566,0.26151779294,-0.000772591447458
1536240505007002849,21272,1536240504980384881,Quadricopter_base,1.50901675224,0.0219496488571,-0.0615405961871,-0.499815315008,0.232705488801,-0.00206618034281
1536240505060326038,21273,1536240505034363538,Quadricopter_base,1.57233595848,0.0231583118439,-0.0511443391442,-0.456028878689,0.216741085052,-0.00197338266298
1536240505118070440,21274,1536240505091147243,Quadricopter_base,1.62260341644,0.0234923362732,-0.0374078676105,-0.431780487299,0.206935614347,-0.00204504607245
1536240505172482949,21275,1536240505147023938,Quadricopter_base,1.66055119038,0.0230660438538,-0.0256586130708,-0.407643318176,0.19841632247,-0.00194647174794
1536240505225612099,21276,1536240505199282926,Quadricopter_base,1.68650388718,0.0219646692276,-0.0117242364213,-0.373716592789,0.180760651827,-0.00220377137884
1536240505283297570,21277,1536240505257551070,Quadricopter_base,1.70167601109,0.0202112197876,-0.000698566494975,-0.33778822422,0.165466159582,-0.00231240969151
1536240505335378017,21278,1536240505310542049,Quadricopter_base,1.70668959618,0.0179514884949,0.0117325782776,-0.294985473156,0.145927608013,-0.00243140431121
1536240505387264009,21279,1536240505360323248,Quadricopter_base,1.70335507393,0.0152969360352,0.0207340717316,-0.269235312939,0.136406555772,-0.00249540340155
1536240505437315172,21280,1536240505419440586,Quadricopter_base,1.69203209877,0.01240670681,0.0307774599642,-0.251072466373,0.129047065973,-0.00245799776167
1536240505494358360,21281,1536240505469013258,Quadricopter_base,1.67358720303,0.00931817293167,0.0371921025217,-0.219608187675,0.116278015077,-0.00250454619527
1536240505560381662,21282,1536240505528969836,Quadricopter_base,1.64835453033,0.0062210559845,0.0445282533765,-0.188653454185,0.101091973484,-0.00246487185359
1536240505618819541,21283,1536240505593272099,Quadricopter_base,1.6180524826,0.00312805152498,0.0482785589993,-0.181118071079,0.100322499871,-0.00259316875599
1536240505679342403,21284,1536240505644744037,Quadricopter_base,1.58268904686,-1.46030170072e-05,0.0530564747751,-0.199577972293,0.112628489733,-0.002642466221
1536240505747787130,21285,1536240505710712393,Quadricopter_base,1.54198014736,-0.00305527471937,0.0542783625424,-0.196139395237,0.115161657333,-0.0027482083533
1536240505811569561,21286,1536240505785517978,Quadricopter_base,1.49510967731,-0.00582128763199,0.0564611069858,-0.168962240219,0.100313045084,-0.00253151194192
1536240505866590758,21287,1536240505839146097,Quadricopter_base,1.44358301163,-0.00826412439346,0.0552284792066,-0.150980994105,0.0930378288031,-0.00265731452964
1536240505929815282,21288,1536240505904429223,Quadricopter_base,1.3873064518,-0.0103789567947,0.0552070140839,-0.140191748738,0.0887999236584,-0.0026820183266
1536240505993927030,21289,1536240505966258661,Quadricopter_base,1.32706069946,-0.0120623707771,0.0519681349397,-0.111650064588,0.0745982825756,-0.00263442657888
1536240506049412221,21290,1536240506024407097,Quadricopter_base,1.26263856888,-0.0132008194923,0.0501442141831,-0.0659965202212,0.0484871305525,-0.00226456322707
1536240506107881509,21291,1536240506083320940,Quadricopter_base,1.19594347477,-0.0137803852558,0.0454843044281,-0.0096132401377,0.0208191592246,-0.00247820094228
1536240506166643376,21292,1536240506140127935,Quadricopter_base,1.12771391869,-0.0137889385223,0.042774669826,0.0523427538574,-0.012741394341,-0.00227365642786
1536240506223365150,21293,1536240506194047467,Quadricopter_base,1.06036043167,-0.0133240520954,0.0378215275705,0.109396129847,-0.0431570783257,-0.00213084369898
1536240506279515661,21294,1536240506253753302,Quadricopter_base,0.995045661926,-0.0124559700489,0.0354385375977,0.155027404428,-0.0687591657043,-0.00185373576824
1536240506331573572,21295,1536240506306267408,Quadricopter_base,0.933633446693,-0.0113134682178,0.0312686040998,0.189380511642,-0.0868673622608,-0.0018258865457
1536240506386621247,21296,1536240506361619777,Quadricopter_base,0.876787781715,-0.00991505384445,0.029951332137,0.216241300106,-0.103873029351,-0.00149098935071
1536240506438858809,21297,1536240506412551725,Quadricopter_base,0.825720846653,-0.00836449861526,0.0269508287311,0.232210472226,-0.114333197474,-0.00141457933933
1536240506492721665,21298,1536240506465724072,Quadricopter_base,0.780700683594,-0.00666779279709,0.0267756022513,0.245621263981,-0.1247157529,-0.00119563192129
1536240506547839474,21299,1536240506521201333,Quadricopter_base,0.742353320122,-0.00498348474503,0.0247752666473,0.257278323174,-0.132089689374,-0.00130574102513
1536240506611436657,21300,1536240506575894869,Quadricopter_base,0.710971832275,-0.0032554268837,0.025422571227,0.264093875885,-0.138468772173,-0.00129166862462
1536240506664964865,21301,1536240506640076257,Quadricopter_base,0.686781585217,-0.00161227583885,0.0240302104503,0.272094666958,-0.143559873104,-0.00141944864299
1536240506718046042,21302,1536240506693120759,Quadricopter_base,0.669973373413,1.92523184523e-05,0.0250291824341,0.289079427719,-0.15524969995,-0.00136740412563
1536240506771738919,21303,1536240506746042255,Quadricopter_base,0.661190450191,0.00149372220039,0.0237560272217,0.281715542078,-0.152832970023,-0.0016434880672
1536240506839954108,21304,1536240506800619809,Quadricopter_base,0.660987615585,0.0028338432312,0.0246143322438,0.239602044225,-0.131977021694,-0.00181818241253
1536240506898748607,21305,1536240506873323074,Quadricopter_base,0.667693853378,0.00402572751045,0.0229382514954,0.205878943205,-0.113007731736,-0.00193234987091
1536240506949387033,21306,1536240506923349655,Quadricopter_base,0.680293560028,0.0050850212574,0.0232434291393,0.208961337805,-0.117056116462,-0.00183778791688
1536240507002335641,21307,1536240506975462511,Quadricopter_base,0.698549509048,0.00594693422318,0.0209474563599,0.206987097859,-0.117613568902,-0.00200364622287
1536240507058806387,21308,1536240507032941909,Quadricopter_base,0.723566532135,0.00662636756897,0.0205087643117,0.152398064733,-0.0886116325855,-0.00216231658123
1536240507123998427,21309,1536240507098406345,Quadricopter_base,0.753365337849,0.00713902711868,0.0174534302205,0.0952636301517,-0.0542082823813,-0.00190566363744
1536240507182904100,21310,1536240507156494862,Quadricopter_base,0.786390662193,0.00758910179138,0.0164556521922,0.0678700655699,-0.0416579656303,-0.00192338018678
1536240507236722284,21311,1536240507209084685,Quadricopter_base,0.823945462704,0.00824257731438,0.0128901042044,-0.151367127895,0.0686383768916,-0.002176980488
1536240507290102219,21312,1536240507263670751,Quadricopter_base,0.864034533501,0.00909036397934,0.0116991996765,-0.654275655746,0.335007667542,0.00386259634979
1536240507347399165,21313,1536240507320411272,Quadricopter_base,0.890143215656,0.0090674161911,0.00957370176911,-0.967811405659,0.511526525021,0.011716322042
1536240507405125430,21314,1536240507378684216,Quadricopter_base,0.887339830399,0.00826832652092,0.0103437853977,-0.858352541924,0.448768496513,0.00706013757735
1536240507466728290,21315,1536240507439732717,Quadricopter_base,0.858789384365,0.00725689530373,0.00780463125557,-0.651539802551,0.331191420555,-2.4873215807e-05
1536240507532897071,21316,1536240507496625529,Quadricopter_base,0.81063824892,0.00594875216484,0.00595332169905,-0.556600570679,0.280482679605,-0.00318620610051
1536240507596382620,21317,1536240507561949077,Quadricopter_base,0.747897982597,0.00426644086838,0.000289675983367,-0.546220898628,0.280499339104,-0.00416977982968
1536240507660373462,21318,1536240507631995103,Quadricopter_base,0.669783890247,0.00241243839264,-0.00495791621506,-0.566013991833,0.291027992964,-0.00348597252741
1536240507716199206,21319,1536240507692213095,Quadricopter_base,0.576736629009,0.000729203224182,-0.0146412746981,-0.550685048103,0.280304431915,-0.00268039526418
1536240507777711889,21320,1536240507745172970,Quadricopter_base,0.467020869255,-0.000456020003185,-0.0247168503702,-0.488295584917,0.239605382085,-0.00162310025189
1536240507847889339,21321,1536240507812491980,Quadricopter_base,0.34374627471,-0.00110054051038,-0.0393915139139,-0.393443673849,0.185909241438,-0.00164925830904
1536240507918024935,21322,1536240507883523875,Quadricopter_base,0.208117604256,-0.00144105532672,-0.053524967283,-0.33208784461,0.152561828494,-0.00203426065855
1536240507972080803,21323,1536240507946425862,Quadricopter_base,0.0642976164818,-0.00163608696312,-0.0706732273102,-0.333760201931,0.159196525812,-0.00378204858862
1536240508027807187,21324,1536240507999863695,Quadricopter_base,-0.08960852772,-0.00136700295843,-0.0863969326019,-0.348572671413,0.16833665967,-0.00379396835342
1536240508080097933,21325,1536240508056525173,Quadricopter_base,-0.253547489643,-0.000564509420656,-0.105632551014,-0.262457221746,0.118170887232,-0.00179669819772
1536240508135522209,21326,1536240508105842548,Quadricopter_base,-0.428274691105,0.00011447093857,-0.123598590493,-0.0809863582253,0.0142160626128,0.0016058877809
1536240508204206407,21327,1536240508172321344,Quadricopter_base,-0.607048630714,-0.000734581495635,-0.142670854926,0.102936469018,-0.0689656957984,-0.00215277727693
1536240508267333602,21328,1536240508239510916,Quadricopter_base,-0.786366045475,-0.00355148059316,-0.156197533011,0.247427463531,-0.115869939327,-0.0106956865638
1536240508330206495,21329,1536240508297705943,Quadricopter_base,-0.960851430893,-0.00790235120803,-0.167446151376,0.377597212791,-0.161049365997,-0.015199303627
1536240508388035445,21330,1536240508360720944,Quadricopter_base,-1.12840294838,-0.013162612915,-0.170818582177,0.498471587896,-0.22039052844,-0.0116154737771
1536240508440741804,21331,1536240508417336243,Quadricopter_base,-1.28406131268,-0.0189827103168,-0.170464530587,0.599069178104,-0.271505057812,-0.00735777616501
1536240508496462986,21332,1536240508466245717,Quadricopter_base,-1.42499899864,-0.0247619766742,-0.161365285516,0.657174825668,-0.30017220974,-0.00497642206028
1536240508559447099,21333,1536240508525357716,Quadricopter_base,-1.54781198502,-0.029578268528,-0.148922204971,0.649749159813,-0.295132339001,-0.00440597115085
1536240508623837794,21334,1536240508589660460,Quadricopter_base,-1.65222787857,-0.0327432155609,-0.129474371672,0.601650118828,-0.276043236256,-0.00307487556711
1536240508684116817,21335,1536240508656301345,Quadricopter_base,-1.73945987225,-0.0344192385674,-0.109484188259,0.580694139004,-0.270235568285,-0.00189036037773
1536240508745322676,21336,1536240508717846428,Quadricopter_base,-1.81008136272,-0.0346481204033,-0.0852680206299,0.572097063065,-0.272756248713,-0.000915443641134
1536240508807404204,21337,1536240508780182129,Quadricopter_base,-1.86379003525,-0.0333830714226,-0.0625944137573,0.519822001457,-0.249970525503,-0.00100420159288
1536240508871078383,21338,1536240508844143795,Quadricopter_base,-1.9014134407,-0.0306791067123,-0.0376528501511,0.442689090967,-0.215337783098,-0.00095510733081
1536240508939388991,21339,1536240508902908408,Quadricopter_base,-1.92585492134,-0.0269341468811,-0.0160437822342,0.392732203007,-0.193222895265,-0.000876588164829
1536240509002888211,21340,1536240508971502318,Quadricopter_base,-1.9385021925,-0.0223761796951,0.00642001535743,0.364395976067,-0.18597394228,-0.000853014702443
1536240509070205488,21341,1536240509034520006,Quadricopter_base,-1.94075345993,-0.0172688364983,0.0247138775885,0.351088672876,-0.183627575636,-0.00108554586768
1536240509130739269,21342,1536240509099144945,Quadricopter_base,-1.93233108521,-0.0117198228836,0.0432312600315,0.321149379015,-0.17500051856,-0.00136363739148
1536240509188769590,21343,1536240509161972020,Quadricopter_base,-1.91448521614,-0.00607049465179,0.0571769438684,0.283681720495,-0.159050941467,-0.00152564130258
1536240509240277753,21344,1536240509220343905,Quadricopter_base,-1.88769924641,-0.000391662440961,0.0710630342364,0.23917105794,-0.141781836748,-0.00168793974444
1536240509294474411,21345,1536240509267357664,Quadricopter_base,-1.85376763344,0.00497704744339,0.0803482532501,0.192022904754,-0.118972025812,-0.00167088047601
1536240509349253247,21346,1536240509321932587,Quadricopter_base,-1.81350040436,0.00992852449417,0.0896865278482,0.151397615671,-0.10033711046,-0.00168827851303
1536240509408590220,21347,1536240509380884870,Quadricopter_base,-1.7689344883,0.0144184827805,0.0947320461273,0.130776181817,-0.0898814573884,-0.00166784133762
1536240509468943554,21348,1536240509442384689,Quadricopter_base,-1.72028028965,0.0185146927834,0.100173942745,0.128182664514,-0.0930333510041,-0.00202040350996
1536240509526937007,21349,1536240509498377332,Quadricopter_base,-1.66825449467,0.0220918655396,0.101608037949,0.130261495709,-0.0968029201031,-0.00239353417419
1536240509586938954,21350,1536240509561511888,Quadricopter_base,-1.61201286316,0.0250971317291,0.103626258671,0.12555359304,-0.0975310951471,-0.00262189516798
1536240509654159901,21351,1536240509617060064,Quadricopter_base,-1.55223536491,0.0273540019989,0.101838119328,0.112370565534,-0.0887231230736,-0.00233341008425
1536240509715803133,21352,1536240509689576888,Quadricopter_base,-1.48857963085,0.0289075374603,0.100886821747,0.0970858186483,-0.0799419134855,-0.00209338287823
1536240509771063551,21353,1536240509744685255,Quadricopter_base,-1.42232823372,0.0298143029213,0.0964987203479,0.0915793329477,-0.0767277777195,-0.00199997727759
1536240509831348248,21354,1536240509803683571,Quadricopter_base,-1.35286998749,0.0300683360547,0.093293197453,0.0863726586103,-0.0750917121768,-0.00209738104604
1536240509890581694,21355,1536240509864028479,Quadricopter_base,-1.280777812,0.0294311642647,0.0868809223175,0.0573085285723,-0.0533223114908,-0.00150559842587
1536240509947580562,21356,1536240509922045866,Quadricopter_base,-1.20573544502,0.027984470129,0.0819313451648,-0.00194028124679,-0.0170999262482,-0.00104768271558
1536240509998040954,21357,1536240509972456261,Quadricopter_base,-1.13012290001,0.0258205533028,0.0743412971497,-0.0690554231405,0.0214571170509,-0.00103901792318
1536240510064205894,21358,1536240510028971793,Quadricopter_base,-1.05516922474,0.0231169462204,0.0690210014582,-0.129776284099,0.0536107979715,-0.0013282597065
1536240510123837060,21359,1536240510096501492,Quadricopter_base,-0.98341524601,0.0200063586235,0.0618231296539,-0.167922824621,0.0787014439702,-0.000940052676015
1536240510177953749,21360,1536240510151096796,Quadricopter_base,-0.915313482285,0.01656717062,0.0574398115277,-0.215092912316,0.105565160513,-0.000933891802561
1536240510237501765,21361,1536240510209807284,Quadricopter_base,-0.852618813515,0.0129292309284,0.0514781475067,-0.261205106974,0.134843215346,-0.00060337112518
1536240510292747809,21362,1536240510266537329,Quadricopter_base,-0.796760261059,0.00926181674004,0.0486230887473,-0.275217264891,0.145645469427,-0.000494957435876
1536240510355529146,21363,1536240510328509700,Quadricopter_base,-0.748386323452,0.0056166946888,0.0442302264273,-0.28684002161,0.156641736627,-0.000492956489325
1536240510413686211,21364,1536240510385541346,Quadricopter_base,-0.707795500755,0.00211098790169,0.0427401103079,-0.298382312059,0.166282221675,-0.000467933743494
1536240510472337162,21365,1536240510445723500,Quadricopter_base,-0.6753064394,-0.00119960308075,0.0394487380981,-0.314261376858,0.179333016276,-0.000623731059022
1536240510533116663,21366,1536240510505638066,Quadricopter_base,-0.651622951031,-0.00422039628029,0.038788318634,-0.321924060583,0.18608507514,-0.000729618768673
1536240510597162510,21367,1536240510568393415,Quadricopter_base,-0.637107133865,-0.00688329339027,0.0360262393951,-0.305652976036,0.180058091879,-0.00104925001506
1536240510653066955,21368,1536240510626130473,Quadricopter_base,-0.631634712219,-0.0091233253479,0.0355291366577,-0.289808481932,0.171774029732,-0.00141053705011
1536240510707524489,21369,1536240510681617014,Quadricopter_base,-0.634281218052,-0.0109961032867,0.0326108932495,-0.280749380589,0.170001670718,-0.00174538244028
1536240510772520534,21370,1536240510744171530,Quadricopter_base,-0.645570933819,-0.0124057531357,0.0316751003265,-0.248991385102,0.152337878942,-0.00191686465405
1536240510834027347,21371,1536240510800690492,Quadricopter_base,-0.664393901825,-0.0133900642395,0.02810597606,-0.196821331978,0.12236879766,-0.00225112261251
1536240510904218229,21372,1536240510868368823,Quadricopter_base,-0.689460396767,-0.013970553875,0.0264573115855,-0.169403553009,0.105921812356,-0.0023755338043
1536240510967326647,21373,1536240510936802124,Quadricopter_base,-0.719327569008,-0.0142420530319,0.0222563743591,-0.151255294681,0.0991205722094,-0.00253676669672
1536240511019771649,21374,1536240510994739928,Quadricopter_base,-0.754164338112,-0.014113843441,0.0200426615775,-0.127016812563,0.0852323696017,-0.00248439470306
1536240511079422739,21375,1536240511053762979,Quadricopter_base,-0.792906403542,-0.0136540830135,0.0153529653326,-0.0898748189211,0.0644478350878,-0.00250733806752
1536240511135283247,21376,1536240511109060926,Quadricopter_base,-0.835365891457,-0.0128287672997,0.0127935409546,-0.0332146286964,0.0273563303053,-0.00217469222844
1536240511187813616,21377,1536240511162425114,Quadricopter_base,-0.8792552948,-0.0118876993656,0.00802278053015,0.0171720888466,-0.00300304987468,-0.0021258611232
1536240511253225390,21378,1536240511225718817,Quadricopter_base,-0.923343360424,-0.0108560621738,0.00576853798702,0.0470741800964,-0.0193532705307,-0.00221435818821
1536240511314935618,21379,1536240511288796456,Quadricopter_base,-0.966281592846,-0.00980758666992,0.00158906227443,0.0692940428853,-0.0296757575125,-0.00239191786386
1536240511369107288,21380,1536240511342174921,Quadricopter_base,-1.00794231892,-0.00859040021896,7.62859272072e-05,0.0966415628791,-0.0463334321976,-0.00218566763215
1536240511431675559,21381,1536240511403359763,Quadricopter_base,-1.04725813866,-0.00734058022499,-0.00327826407738,0.127581343055,-0.064284555614,-0.00212234933861
1536240511488353969,21382,1536240511461772221,Quadricopter_base,-1.08341443539,-0.00595512986183,-0.00385284377262,0.142804771662,-0.0762641504407,-0.00189522991423
1536240511550429308,21383,1536240511521908088,Quadricopter_base,-1.11576032639,-0.00455769896507,-0.00623702537268,0.158197641373,-0.0847945436835,-0.00187122204807
1536240511607265697,21384,1536240511581425246,Quadricopter_base,-1.14392960072,-0.00313875079155,-0.0058925151825,0.171148180962,-0.0941096097231,-0.0017780889757
1536240511662746059,21385,1536240511635217028,Quadricopter_base,-1.16744446754,-0.00172853469849,-0.00743508944288,0.181435346603,-0.0997092649341,-0.00185800646432
1536240511725568102,21386,1536240511689344490,Quadricopter_base,-1.18587183952,-0.000283300876617,-0.00636339373887,0.181072562933,-0.102189779282,-0.00183518719859
1536240511796017172,21387,1536240511759757697,Quadricopter_base,-1.19913160801,0.00112307071686,-0.0073254108429,0.171708777547,-0.0970512926579,-0.00186425866559
1536240511857495196,21388,1536240511828781084,Quadricopter_base,-1.20749104023,0.00249624252319,-0.00584006309509,0.171894311905,-0.0991957262158,-0.00179459294304
1536240511921916892,21389,1536240511888941131,Quadricopter_base,-1.21124374866,0.00380659103394,-0.0065386290662,0.183970779181,-0.106670148671,-0.00181491370313
1536240511979031921,21390,1536240511950501464,Quadricopter_base,-1.20956647396,0.00502812862396,-0.00492811063305,0.176197975874,-0.104993313551,-0.00190786691383
1536240512035135998,21391,1536240512007675405,Quadricopter_base,-1.20270133018,0.00607895851135,-0.00563621381298,0.153822362423,-0.0913973599672,-0.00198819441721
1536240512090007118,21392,1536240512063102911,Quadricopter_base,-1.19089567661,0.00698092579842,-0.00415325723588,0.121859453619,-0.0747651010752,-0.00197877036408
1536240512149759550,21393,1536240512121368619,Quadricopter_base,-1.17531478405,0.00766628980637,-0.00505566224456,0.0892165452242,-0.0552397370338,-0.00190634222236
1536240512209890236,21394,1536240512177280936,Quadricopter_base,-1.15672826767,0.00818970799446,-0.00375866470858,0.0656590759754,-0.0436130613089,-0.00193549250253
1536240512279497913,21395,1536240512240942490,Quadricopter_base,-1.13726639748,0.00864008069038,-0.00475407252088,0.134619921446,-0.0789964795113,-0.00159770157188
1536240512346800743,21396,1536240512315773042,Quadricopter_base,-1.11793267727,0.0095329284668,-0.00332832918502,0.452935636044,-0.251587241888,0.000917300581932
1536240512399768096,21397,1536240512371148436,Quadricopter_base,-1.09026455879,0.0114497244358,-0.00435828464106,0.77489900589,-0.432636082172,0.00471740169451
1536240512459256422,21398,1536240512429417900,Quadricopter_base,-1.04075980186,0.0138744115829,-0.00474334182218,0.827539622784,-0.459603518248,0.00413712626323
1536240512523035293,21399,1536240512487741762,Quadricopter_base,-0.96615588665,0.0152515769005,-0.0106823416427,0.619638502598,-0.330805748701,3.86988358514e-05
1536240512584637985,21400,1536240512551894404,Quadricopter_base,-0.871070742607,0.015494197607,-0.0176107734442,0.415525138378,-0.205961480737,-0.00102480594069
1536240512646600820,21401,1536240512619078220,Quadricopter_base,-0.765127778053,0.0157226324081,-0.0284314136952,0.377725630999,-0.190416261554,-0.00236713676713
1536240512705400614,21402,1536240512674834346,Quadricopter_base,-0.648440539837,0.0160223245621,-0.0382769070566,0.404087036848,-0.217301398516,-0.00476929591969
1536240512764455691,21403,1536240512735675209,Quadricopter_base,-0.521283626556,0.0157342851162,-0.0518822707236,0.406740248203,-0.216110169888,-0.00376216461882
1536240512825708596,21404,1536240512790566691,Quadricopter_base,-0.381203323603,0.0144577771425,-0.0651347786188,0.360122203827,-0.178752109408,-0.000536246283446
1536240512890641974,21405,1536240512854714165,Quadricopter_base,-0.231266245246,0.0124962320551,-0.0820076465607,0.305578529835,-0.137624919415,0.00237165694125
1536240512945286461,21406,1536240512916587807,Quadricopter_base,-0.0714619755745,0.01032864023,-0.097439289093,0.27376806736,-0.122549124062,0.000943189428654
1536240512998997717,21407,1536240512972033351,Quadricopter_base,0.0953396707773,0.00799728929996,-0.115354061127,0.262480378151,-0.119646199048,-0.00103307969403
1536240513046520715,21408,1536240513027666892,Quadricopter_base,0.271541595459,0.00544259464368,-0.131458044052,0.200082540512,-0.0871133804321,-0.00203191814944
1536240513099415308,21409,1536240513072546699,Quadricopter_base,0.454659283161,0.00316372606903,-0.149885416031,0.0541377104819,-0.00409932481125,-0.000228698278079
1536240513159203199,21410,1536240513129799889,Quadricopter_base,0.643143594265,0.00245487666689,-0.164692401886,-0.130912974477,0.0840887054801,-0.00265151285566
1536240513228857834,21411,1536240513193526256,Quadricopter_base,0.829907596111,0.0039299451746,-0.178222686052,-0.28505975008,0.143625408411,-0.00868134666234
1536240513302177400,21412,1536240513265071127,Quadricopter_base,1.01221704483,0.00727600371465,-0.184289231896,-0.411834299564,0.188810154796,-0.0133365849033
1536240513375246607,21413,1536240513337316490,Quadricopter_base,1.18547642231,0.012067258358,-0.1868891716,-0.552777588367,0.256777435541,-0.0108459079638
1536240513440351368,21414,1536240513406833275,Quadricopter_base,1.34679663181,0.018014550209,-0.180535361171,-0.706136584282,0.335726171732,-0.00595217943192
1536240513492749976,21415,1536240513465330479,Quadricopter_base,1.49034202099,0.0244051199406,-0.169669404626,-0.831883788109,0.401116549969,-0.00202087592334
1536240513547968897,21416,1536240513520769102,Quadricopter_base,1.61080574989,0.029489159584,-0.149448513985,-0.826310753822,0.396706581116,-0.00158451241441
1536240513604155393,21417,1536240513577074483,Quadricopter_base,1.70540642738,0.031607568264,-0.126431584358,-0.62927120924,0.300291568041,-0.00287199369632
1536240513659582859,21418,1536240513631159243,Quadricopter_base,1.77934408188,0.0311630368233,-0.0984650999308,-0.434340715408,0.207710802555,-0.0030610258691
1536240513719510167,21419,1536240513689646121,Quadricopter_base,1.84015059471,0.0294542312622,-0.0725644826889,-0.387232631445,0.197162508965,-0.00179827201646
1536240513781067223,21420,1536240513752924368,Quadricopter_base,1.88992452621,0.0272042155266,-0.0447958707809,-0.41622620821,0.218335717916,-0.00113991904072
1536240513846684484,21421,1536240513816728258,Quadricopter_base,1.92770290375,0.0244596600533,-0.0203257799149,-0.432591557503,0.227911904454,-0.0011786846444
1536240513910638267,21422,1536240513882965698,Quadricopter_base,1.95234775543,0.0210229158401,0.0051742810756,-0.41142937541,0.215593516827,-0.00146775296889
1536240513967338674,21423,1536240513940540239,Quadricopter_base,1.96475982666,0.0169121026993,0.0265192985535,-0.377380996943,0.202096611261,-0.00171257473994
1536240514022990610,21424,1536240513996103455,Quadricopter_base,1.96553230286,0.0122784376144,0.0480258464813,-0.343354523182,0.189815163612,-0.00186311721336
1536240514085516478,21425,1536240514057684587,Quadricopter_base,1.9557877779,0.00738668441772,0.0647914409637,-0.278935462236,0.16248331964,-0.00199578609318
1536240514138169413,21426,1536240514111574847,Quadricopter_base,1.93685269356,0.00258010625839,0.0813060998917,-0.216621428728,0.129810139537,-0.00207605818287
1536240514196571790,21427,1536240514169429586,Quadricopter_base,1.91173088551,-0.0020467042923,0.0930547714233,-0.201897412539,0.125570252538,-0.00237795803696
1536240514250572184,21428,1536240514223960091,Quadricopter_base,1.88038957119,-0.00644373847172,0.104643695056,-0.192251682281,0.123045384884,-0.00242645526305
1536240514310351839,21429,1536240514284971215,Quadricopter_base,1.84355938435,-0.0104941725731,0.111592411995,-0.174664258957,0.116174057126,-0.00253775413148
1536240514360700749,21430,1536240514335054004,Quadricopter_base,1.80116248131,-0.0141397118568,0.118528589606,-0.15693873167,0.107269480824,-0.00242413231172
1536240514423629672,21431,1536240514386587577,Quadricopter_base,1.75434577465,-0.0172984600067,0.121096372604,-0.141563355923,0.101292252541,-0.00260628783144
1536240514494241455,21432,1536240514457579802,Quadricopter_base,1.7028670311,-0.0198625922203,0.123938322067,-0.124200098217,0.0910181701183,-0.00240610260516
1536240514565400902,21433,1536240514528981731,Quadricopter_base,1.64801466465,-0.0219310522079,0.122759342194,-0.114921018481,0.0873537510633,-0.00249804672785
1536240514636949470,21434,1536240514600263866,Quadricopter_base,1.589584589,-0.0235530734062,0.122237235308,-0.122647725046,0.0951409712434,-0.00270214886405
1536240514693450441,21435,1536240514666738132,Quadricopter_base,1.52796411514,-0.0246299505234,0.117998145521,-0.126088514924,0.101005837321,-0.00300652068108
1536240514746873492,21436,1536240514720734364,Quadricopter_base,1.46209263802,-0.0249456167221,0.114594675601,-0.118915662169,0.0941925570369,-0.00246460200287
1536240514802447897,21437,1536240514777615468,Quadricopter_base,1.39270162582,-0.0243936777115,0.107697248459,-0.0924272686243,0.0724460706115,-0.00153251294978
1536240514859224057,21438,1536240514833703760,Quadricopter_base,1.3197157383,-0.0230595469475,0.102005004883,-0.0592585466802,0.0432639606297,-0.000417018745793
1536240514919156288,21439,1536240514894208176,Quadricopter_base,1.24492549896,-0.0212558507919,0.0933623537421,-0.0184529051185,0.019895799458,-0.00079281150829
1536240514969148772,21440,1536240514943906810,Quadricopter_base,1.16847264767,-0.0189374387264,0.0865149497986,0.0370188802481,-0.00895925890654,-0.00169651396573
1536240515027324507,21441,1536240515001197197,Quadricopter_base,1.09251844883,-0.0161446928978,0.0773453637958,0.0981750264764,-0.0413345359266,-0.00233572698198
1536240515082626247,21442,1536240515055300283,Quadricopter_base,1.0182352066,-0.0129276514053,0.0707208961248,0.144917070866,-0.072593472898,-0.00185663043521
1536240515145828341,21443,1536240515115628078,Quadricopter_base,0.947566866875,-0.00950929522514,0.0623965337873,0.187475144863,-0.0994403958321,-0.00150040828157
1536240515216299422,21444,1536240515178528964,Quadricopter_base,0.881719827652,-0.00606071949005,0.0571298599243,0.193909689784,-0.107026711106,-0.00122175563592
1536240515282977079,21445,1536240515248145815,Quadricopter_base,0.825920164585,-0.0035860540811,0.0508940257132,-0.154227644205,0.0787137001753,0.00079548737267
1536240515341134197,21446,1536240515312388618,Quadricopter_base,0.771577239037,-0.00257891439833,0.0473558939993,-0.623641014099,0.342107951641,0.00897589977831
1536240515396483310,21447,1536240515371120331,Quadricopter_base,0.702216207981,-0.00207015848719,0.0397193282843,-0.776433825493,0.419182747602,0.0128844380379
1536240515451162458,21448,1536240515425371772,Quadricopter_base,0.608652770519,-0.000578910170589,0.0303006079048,-0.630898416042,0.315872251987,0.00985638983548
1536240515508145436,21449,1536240515483505707,Quadricopter_base,0.496150761843,0.00183364737313,0.0148296374828,-0.402979403734,0.174822390079,0.00485295336694
1536240515558309027,21450,1536240515533713039,Quadricopter_base,0.370826452971,0.00409653782845,-0.000536436680704,-0.28362634778,0.114099964499,-0.000495649816003
1536240515620020396,21451,1536240515586717051,Quadricopter_base,0.238955676556,0.00578568130732,-0.0186514761299,-0.286753803492,0.134932979941,-0.00637805182487
1536240515683669045,21452,1536240515656849056,Quadricopter_base,0.0985291004181,0.00747588323429,-0.0350809134543,-0.30255228281,0.148923397064,-0.00703333970159
1536240515734546285,21453,1536240515710357613,Quadricopter_base,-0.0495073087513,0.00960250385106,-0.0543642044067,-0.307870835066,0.14061422646,-0.0027540284209
1536240515786633208,21454,1536240515762418074,Quadricopter_base,-0.207290276885,0.012030467391,-0.0721633434296,-0.295094758272,0.120160907507,0.00191660248674
1536240515844219417,21455,1536240515819072626,Quadricopter_base,-0.37436619401,0.0138743231073,-0.0932705402374,-0.131190210581,0.0310666561127,0.00128825427964
1536240515906238290,21456,1536240515874845267,Quadricopter_base,-0.553018808365,0.0127104213461,-0.113238073885,0.414853930473,-0.253795146942,0.00199678260833
1536240515977686496,21457,1536240515944537478,Quadricopter_base,-0.729392945766,0.00579196307808,-0.131206512451,1.14571666718,-0.621475040913,0.0111271478236
1536240516038394035,21458,1536240516011642010,Quadricopter_base,-0.879991292953,-0.0046796198003,-0.134321451187,1.525370121,-0.777948558331,0.0090400762856
1536240516098304941,21459,1536240516071825194,Quadricopter_base,-0.988471210003,-0.0135971000418,-0.126727819443,1.49388182163,-0.726647138596,-0.00425995420665
1536240516159936242,21460,1536240516131665534,Quadricopter_base,-1.05081570148,-0.0175519287586,-0.108345746994,1.17494535446,-0.588212490082,-0.0125129036605
1536240516218819376,21461,1536240516189570510,Quadricopter_base,-1.0760191679,-0.0176618099213,-0.0896775722504,0.817819535732,-0.444955229759,-0.0152986776084
1536240516278312563,21462,1536240516249378642,Quadricopter_base,-1.07511651516,-0.0161741375923,-0.0689566135406,0.672806859016,-0.388115942478,-0.013358945027
1536240516341333690,21463,1536240516312799674,Quadricopter_base,-1.05492424965,-0.014216452837,-0.0520825460553,0.667007446289,-0.375430583954,-0.00973099470139
1536240516402250263,21464,1536240516373431852,Quadricopter_base,-1.01459813118,-0.0117952227592,-0.0352537669241,0.659382343292,-0.356706231833,-0.00650543207303
1536240516471331224,21465,1536240516435960743,Quadricopter_base,-0.955710053444,-0.0087915956974,-0.0237631928176,0.628625154495,-0.333566039801,-0.00485506327823
1536240516538863918,21466,1536240516506374446,Quadricopter_base,-0.877614319324,-0.00535923242569,-0.013620856218,0.567066133022,-0.304969877005,-0.00541041791439
1536240516596821267,21467,1536240516569604450,Quadricopter_base,-0.78118366003,-0.00276517868042,-0.0100088231266,0.31500852108,-0.168239608407,-0.00723327044398
1536240516659591558,21468,1536240516624463859,Quadricopter_base,-0.66837567091,-0.00201585888863,-0.00802278518677,-0.223907113075,0.133849099278,-0.00325616961345
1536240516717010085,21469,1536240516688033241,Quadricopter_base,-0.556840121746,-0.00163094699383,-0.00807404704392,-0.670662820339,0.381125360727,0.00673446618021
1536240516784027594,21470,1536240516748111392,Quadricopter_base,-0.462854892015,-0.000124946222058,-0.00201463862322,-0.791050732136,0.423931419849,0.00538157764822
1536240516853535848,21471,1536240516815770430,Quadricopter_base,-0.392502725124,0.00175307691097,0.00523805664852,-0.693441331387,0.359991908073,-0.000636312819552
1536240516902144682,21472,1536240516883715043,Quadricopter_base,-0.342900872231,0.00321218371391,0.0166261196136,-0.615857303143,0.32426738739,-0.0031815781258
1536240516959791812,21473,1536240516931955564,Quadricopter_base,-0.310151129961,0.00416667759418,0.0261247158051,-0.637915015221,0.353745162487,-0.0017442983808
1536240517018974911,21474,1536240516993109024,Quadricopter_base,-0.297140300274,0.00506027042866,0.0376212596893,-0.550424158573,0.314054965973,-0.00267343618907
1536240517080396606,21475,1536240517050195889,Quadricopter_base,-0.301045775414,0.00606305897236,0.0456404685974,-0.445806980133,0.249131858349,-0.00480419583619
1536240517140576557,21476,1536240517113721042,Quadricopter_base,-0.318071335554,0.00708836317062,0.0543987751007,-0.441316723824,0.240356504917,-0.00446489779279
1536240517198558709,21477,1536240517171282006,Quadricopter_base,-0.347014427185,0.00803527235985,0.0590920485556,-0.449734032154,0.245728209615,-0.00369151704945
1536240517254207484,21478,1536240517228910295,Quadricopter_base,-0.389552175999,0.00890372693539,0.0639355182648,-0.411546528339,0.223773300648,-0.00358836748637
1536240517305970590,21479,1536240517280543575,Quadricopter_base,-0.444136351347,0.00959572196007,0.0642621591687,-0.324840664864,0.173984766006,-0.00419721752405
1536240517360819479,21480,1536240517336499347,Quadricopter_base,-0.509531676769,0.0100893974304,0.0647103786469,-0.222232192755,0.11274471879,-0.0044090365991
1536240517421497819,21481,1536240517392625248,Quadricopter_base,-0.581563949585,0.0101913511753,0.0612807273865,-0.130773767829,0.0623277500272,-0.00465257605538
1536240517477377898,21482,1536240517452035404,Quadricopter_base,-0.658264279366,0.00994884967804,0.0590050257742,-0.069585300982,0.0294675007463,-0.00451676174998
1536240517532041646,21483,1536240517507210588,Quadricopter_base,-0.736849188805,0.00938794016838,0.0538218021393,-0.0264748446643,0.00845371652395,-0.00448384694755
1536240517586696677,21484,1536240517561273758,Quadricopter_base,-0.817093789577,0.00852492451668,0.0505113601685,0.0240104421973,-0.0196672305465,-0.00384935666807
1536240517642120848,21485,1536240517611583146,Quadricopter_base,-0.896991252899,0.00729593634605,0.0448608398438,0.0857871472836,-0.0523523949087,-0.00354607007466
1536240517703277804,21486,1536240517673724118,Quadricopter_base,-0.975498259068,0.00571212172508,0.0417339839041,0.144422292709,-0.0842511057854,-0.00307646952569
1536240517767893300,21487,1536240517737108006,Quadricopter_base,-1.05025553703,0.00383275747299,0.0368988513947,0.193617850542,-0.108328387141,-0.00305037805811
1536240517840925823,21488,1536240517806092175,Quadricopter_base,-1.1204161644,0.00176546000876,0.0350725576282,0.241098493338,-0.133754000068,-0.00264411978424
1536240517902743175,21489,1536240517876147108,Quadricopter_base,-1.18432915211,-0.00040388101479,0.0317883491516,0.292768716812,-0.160803735256,-0.00233386550099
1536240517960213904,21490,1536240517933710311,Quadricopter_base,-1.24084925652,-0.00256371498108,0.0316572189331,0.347445040941,-0.191466078162,-0.00164398667403
1536240518016424438,21491,1536240517989027449,Quadricopter_base,-1.28788566589,-0.00447994470596,0.0301003474742,0.369166880846,-0.202403813601,-0.00174057681579
1536240518077450908,21492,1536240518051474534,Quadricopter_base,-1.32411396503,-0.0059786438942,0.0315356217325,0.339297533035,-0.185743942857,-0.00208530551754
1536240518133966095,21493,1536240518108155119,Quadricopter_base,-1.35049951077,-0.00704717636108,0.031018262729,0.306656718254,-0.165610998869,-0.00242698332295
1536240518187154270,21494,1536240518159764685,Quadricopter_base,-1.36819088459,-0.00769811868668,0.0328361950815,0.302837133408,-0.16517148912,-0.00223999936134
1536240518241923482,21495,1536240518215615869,Quadricopter_base,-1.3775421381,-0.0079882144928,0.0322556495667,0.303541451693,-0.166253626347,-0.00217051221989
1536240518300938142,21496,1536240518274219801,Quadricopter_base,-1.3778553009,-0.00791966915131,0.0336682796478,0.274433761835,-0.151776373386,-0.00229714531451
1536240518363259774,21497,1536240518332433557,Quadricopter_base,-1.3702340126,-0.00760138034821,0.0324034690857,0.239998832345,-0.130524471402,-0.00235350802541
1536240518424597873,21498,1536240518397370444,Quadricopter_base,-1.35552632809,-0.00700342655182,0.0329339616001,0.223721653223,-0.122256711125,-0.0023102844134
1536240518477362842,21499,1536240518451653112,Quadricopter_base,-1.33469665051,-0.00623100996017,0.0307035502046,0.21575820446,-0.117758281529,-0.00223071896471
1536240518543868442,21500,1536240518507697668,Quadricopter_base,-1.30736148357,-0.00522351264954,0.0302100237459,0.192812591791,-0.10703843087,-0.00236507388763
1536240518615746517,21501,1536240518578324381,Quadricopter_base,-1.27421998978,-0.00421792268753,0.0269186496735,0.140575751662,-0.0774663388729,-0.00240657571703
1536240518679046704,21502,1536240518650912941,Quadricopter_base,-1.23631370068,-0.00319981575012,0.0254690553993,0.0933635085821,-0.0516350530088,-0.00229155039415
1536240518751382157,21503,1536240518714921832,Quadricopter_base,-1.19577360153,-0.0021852850914,0.0214993953705,0.0689953714609,-0.0379286110401,-0.00217370479368
1536240518821543271,21504,1536240518784916096,Quadricopter_base,-1.15266597271,-0.00116097927094,0.0196337811649,0.036079172045,-0.0220128353685,-0.00224673119374
1536240518877058490,21505,1536240518850930490,Quadricopter_base,-1.10821485519,-0.000300258310745,0.015436405316,-0.00486716208979,0.00153000419959,-0.00206284713931
1536240518934667272,21506,1536240518909136318,Quadricopter_base,-1.06313681602,0.000499814690556,0.0135958185419,-0.0478650853038,0.024276804179,-0.00196015206166
1536240518987500714,21507,1536240518961965893,Quadricopter_base,-1.01910567284,0.00117751955986,0.00970602221787,-0.0827885866165,0.0451445877552,-0.00169368786737
1536240519043901950,21508,1536240519018535257,Quadricopter_base,-0.97686111927,0.00177878141403,0.00842572283,-0.110097162426,0.0592452660203,-0.00162863684818
1536240519096798037,21509,1536240519071045905,Quadricopter_base,-0.937565147877,0.00229704380035,0.00525832362473,-0.127474218607,0.070103392005,-0.00153271481395
1536240519149550134,21510,1536240519123568407,Quadricopter_base,-0.901520133018,0.00276279449463,0.0047743357718,-0.143589943647,0.0779875069857,-0.00162248208653
1536240519205594244,21511,1536240519178675047,Quadricopter_base,-0.869354784489,0.00313133001328,0.00239849020727,-0.156512439251,0.0867865905166,-0.00154242361896
1536240519267699857,21512,1536240519232326475,Quadricopter_base,-0.841453790665,0.00348544120789,0.00266672018915,-0.163501188159,0.0900086313486,-0.00162268744316
1536240519326291676,21513,1536240519296296043,Quadricopter_base,-0.81797170639,0.00372996926308,0.000957248965278,-0.174027293921,0.0969311445951,-0.00163710303605
1536240519399347866,21514,1536240519362858591,Quadricopter_base,-0.79914855957,0.00396722555161,0.0017833710881,-0.193782031536,0.107153832912,-0.0016269874759
1536240519464098451,21515,1536240519435307644,Quadricopter_base,-0.785630464554,0.00413194298744,0.000534057850018,-0.199692174792,0.112245425582,-0.00159125751816
1536240519523895798,21516,1536240519498100469,Quadricopter_base,-0.777689516544,0.00425019860268,0.0016987323761,-0.208470389247,0.115682475269,-0.00166709942278
1536240519579841567,21517,1536240519551127667,Quadricopter_base,-0.775647938251,0.00431042909622,0.000631808594335,-0.196711868048,0.110847398639,-0.00179462810047
1536240519647234532,21518,1536240519609264238,Quadricopter_base,-0.785422861576,0.00418868660927,0.00175952911377,0.268167167902,-0.151401132345,-0.000896000361536
1536240519712743479,21519,1536240519675382174,Quadricopter_base,-0.794912397861,0.00461485981941,0.000935790361837,0.825081110001,-0.48930093646,0.00650476431474
1536240519783755234,21520,1536240519744405100,Quadricopter_base,-0.782189369202,0.00579312443733,0.00245452416129,0.978965401649,-0.580860137939,0.00829231645912
1536240519847978785,21521,1536240519819881201,Quadricopter_base,-0.740359902382,0.00701433420181,-0.000113247580884,0.846456944942,-0.489849299192,0.00285780965351
1536240519910125275,21522,1536240519880999976,Quadricopter_base,-0.671511888504,0.0078481733799,-0.00355719635263,0.668683111668,-0.373809039593,-0.00123782805167
1536240519972323930,21523,1536240519944638670,Quadricopter_base,-0.583332180977,0.00832529366016,-0.0122356414795,0.541765630245,-0.2964605093,-0.00330194365233
1536240520042275832,21524,1536240520002257276,Quadricopter_base,-0.478209227324,0.00844642519951,-0.0213563367724,0.449408113956,-0.245281323791,-0.00462616374716
1536240520106085127,21525,1536240520076838780,Quadricopter_base,-0.360831618309,0.0081886947155,-0.0347089730203,0.398898005486,-0.215089082718,-0.00426607718691
1536240520167509373,21526,1536240520138264579,Quadricopter_base,-0.231421291828,0.00756127340719,-0.0474178865552,0.393837243319,-0.211270600557,-0.00332269794308
1536240520241406729,21527,1536240520201783306,Quadricopter_base,-0.0916358008981,0.00638233870268,-0.0638473033905,0.380562782288,-0.199047550559,-0.00187344290316
1536240520317990481,21528,1536240520280239212,Quadricopter_base,0.060447268188,0.00464765401557,-0.0796687602997,0.330953925848,-0.163949593902,-0.000219779583858
1536240520376404075,21529,1536240520349221736,Quadricopter_base,0.221578165889,0.00257179094478,-0.0987267419696,0.283390045166,-0.130434408784,0.00119856453966
1536240520437835112,21530,1536240520410076502,Quadricopter_base,0.392934948206,0.000640646088868,-0.116291046143,0.19292883575,-0.0804501399398,-0.000156538124429
1536240520498047592,21531,1536240520464296805,Quadricopter_base,0.571347951889,-0.000274449819699,-0.13619184494,0.0124216061085,0.0194819997996,-0.00121386384126
1536240520566358707,21532,1536240520528395054,Quadricopter_base,0.754248023033,0.0010184913408,-0.152095541358,-0.199991554022,0.125651881099,-0.00415932573378
1536240520630307692,21533,1536240520600970954,Quadricopter_base,0.936243474483,0.00624826736748,-0.166920423508,-0.568235099316,0.310189366341,-0.00568921864033
1536240520686423884,21534,1536240520659484136,Quadricopter_base,1.10882878304,0.0155023932457,-0.172293171287,-0.945399105549,0.499691545963,-0.00156447687186
1536240520746103627,21535,1536240520717686256,Quadricopter_base,1.25633335114,0.0253438968211,-0.169416680932,-1.00802779198,0.506938457489,-0.0061803990975
1536240520799170563,21536,1536240520780183536,Quadricopter_base,1.37288808823,0.0319975614548,-0.154361739755,-0.762815535069,0.35779851675,-0.0140233049169
1536240520854430912,21537,1536240520827814141,Quadricopter_base,1.46540129185,0.0349112153053,-0.136357545853,-0.527148723602,0.246938705444,-0.0121762463823
1536240520909734438,21538,1536240520882679989,Quadricopter_base,1.54201745987,0.0351723432541,-0.113534934819,-0.432449281216,0.22932612896,-0.00530758174136
1536240520962946871,21539,1536240520935852363,Quadricopter_base,1.60597705841,0.0343943834305,-0.0921452119946,-0.423781245947,0.240035146475,-0.00191862299107
1536240521019762130,21540,1536240520991905250,Quadricopter_base,1.65740990639,0.0332397222519,-0.0680589601398,-0.435665220022,0.237038001418,-0.00221489439718
1536240521076694998,21541,1536240521049457015,Quadricopter_base,1.69561219215,0.0313293337822,-0.0465828180313,-0.401474803686,0.211313888431,-0.00280521856621
1536240521129303355,21542,1536240521103562500,Quadricopter_base,1.7213755846,0.0284084677696,-0.0235784091055,-0.35597461462,0.188626050949,-0.00276922155172
1536240521187959790,21543,1536240521161993457,Quadricopter_base,1.73663294315,0.024591088295,-0.0042361007072,-0.326780438423,0.183588191867,-0.00238849758171
1536240521243054984,21544,1536240521216097141,Quadricopter_base,1.74163532257,0.0202180743217,0.0158005934209,-0.288196563721,0.168227791786,-0.0021395124495
1536240521299843732,21545,1536240521273884964,Quadricopter_base,1.73804998398,0.0155981183052,0.0316554345191,-0.263122498989,0.156625136733,-0.00219957414083
1536240521359595681,21546,1536240521332248833,Quadricopter_base,1.72634863853,0.0108245611191,0.0478267706931,-0.249856978655,0.150196388364,-0.00217274739407
1536240521421105528,21547,1536240521395101206,Quadricopter_base,1.70733332634,0.00599867105484,0.0596284866333,-0.228972658515,0.142895460129,-0.0023125722073
1536240521485793455,21548,1536240521449527494,Quadricopter_base,1.6811747551,0.00119811296463,0.0716269016266,-0.213781610131,0.137960791588,-0.00241534179077
1536240521551383720,21549,1536240521515335030,Quadricopter_base,1.64893019199,-0.00347429490648,0.0792789459229,-0.202032506466,0.136910915375,-0.00268324417993
1536240521612647936,21550,1536240521583108561,Quadricopter_base,1.61028170586,-0.00783133506775,0.0871658176184,-0.19034691155,0.132641121745,-0.0027176477015
1536240521682531804,21551,1536240521647302019,Quadricopter_base,1.5661689043,-0.0118041038513,0.0908339172602,-0.175912410021,0.127963572741,-0.00285121169873
1536240521751298168,21552,1536240521714120485,Quadricopter_base,1.51618039608,-0.0152003765106,0.0948810577393,-0.153555631638,0.114869765937,-0.002643707674
1536240521810285187,21553,1536240521784812265,Quadricopter_base,1.4617806673,-0.0180571079254,0.0949597433209,-0.136062562466,0.106605105102,-0.00274753617123
1536240521867246457,21554,1536240521841080110,Quadricopter_base,1.40283429623,-0.0203269720078,0.0957429483533,-0.128377467394,0.103676721454,-0.00275092688389
1536240521928559416,21555,1536240521901613321,Quadricopter_base,1.34012126923,-0.0218789577484,0.0928509011865,-0.108735524118,0.0913627818227,-0.00254610879347
1536240521993910389,21556,1536240521968467818,Quadricopter_base,1.27335202694,-0.0226563215256,0.0909411981702,-0.0844191908836,0.070221118629,-0.00167121004779
1536240522056182109,21557,1536240522028309706,Quadricopter_base,1.20426511765,-0.0229150652885,0.0857877954841,-0.0722988843918,0.0621806010604,-0.00165544229094
1536240522116479622,21558,1536240522086710853,Quadricopter_base,1.13262748718,-0.0227364897728,0.0820708274841,-0.0731924846768,0.0640625283122,-0.00190458237194
1536240522179025959,21559,1536240522152234503,Quadricopter_base,1.05906629562,-0.0220286548138,0.0754117816687,-0.071824207902,0.0643174871802,-0.00211264146492
1536240522231933316,21560,1536240522207430622,Quadricopter_base,0.982761383057,-0.0207656919956,0.0703799724579,-0.0654532238841,0.0549211315811,-0.00135179352947
1536240522283522109,21561,1536240522256946813,Quadricopter_base,0.904718637466,-0.019027620554,0.0626361370087,-0.0571843758225,0.0459320545197,-0.000979560078122
1536240522349706198,21562,1536240522314238076,Quadricopter_base,0.824369192123,-0.0169012248516,0.0567996501923,-0.0477828383446,0.0352308675647,-0.0005152648082
1536240522414315028,21563,1536240522385211862,Quadricopter_base,0.742847979069,-0.0144988000393,0.0485336780548,-0.0383550561965,0.0273635834455,-0.000588816939853
1536240522473566950,21564,1536240522446162510,Quadricopter_base,0.659777104855,-0.0119399130344,0.0424933321774,-0.0396980717778,0.0259823333472,-0.000658540753648
1536240522527143858,21565,1536240522501210481,Quadricopter_base,0.576001167297,-0.00931735336781,0.034252397716,-0.0440349243581,0.0286319032311,-0.000989908818156
1536240522586915244,21566,1536240522553014279,Quadricopter_base,0.490434706211,-0.00651450455189,0.0283348560333,-0.0436125472188,0.023934584111,-0.000568712071981
1536240522648770015,21567,1536240522616767909,Quadricopter_base,0.40390881896,-0.00368422269821,0.0202906131744,-0.0358155146241,0.0161496903747,-0.000446926511358
1536240522705869698,21568,1536240522681632522,Quadricopter_base,0.31587472558,-0.000886052788701,0.0147354602814,-0.0310763195157,0.00931730121374,-0.000253885664279
1536240522765732411,21569,1536240522739696778,Quadricopter_base,0.22702974081,0.00180579710286,0.00716924760491,-0.00264972634614,-0.00753754936159,-0.000801874441095
1536240522823741700,21570,1536240522797864915,Quadricopter_base,0.136825039983,0.0043427310884,0.00220775650814,0.065224647522,-0.0497521162033,-0.00112155789975
1536240522882711022,21571,1536240522856390185,Quadricopter_base,0.047852113843,0.00656822137535,-0.00431060791016,0.145817056298,-0.0970391631126,-0.00162499304861
1536240522939963817,21572,1536240522914221469,Quadricopter_base,-0.038137152791,0.0084221009165,-0.00738859269768,0.211486905813,-0.135695323348,-0.00181564467493
1536240522996446648,21573,1536240522969772223,Quadricopter_base,-0.118430122733,0.00981003791094,-0.0113213062286,0.260381877422,-0.161761924624,-0.00221874983981
1536240523052865369,21574,1536240523025667441,Quadricopter_base,-0.191913217306,0.0108693540096,-0.0114238262177,0.292963534594,-0.18174661696,-0.0020127648022
1536240523122158219,21575,1536240523085332811,Quadricopter_base,-0.257167518139,0.0115822404623,-0.0123977661133,0.317150712013,-0.195935219526,-0.00184593361337
1536240523180942748,21576,1536240523153588703,Quadricopter_base,-0.313586384058,0.0120643973351,-0.00979423802346,0.334221154451,-0.208450466394,-0.0014988820767
1536240523239171551,21577,1536240523213751301,Quadricopter_base,-0.360869824886,0.0122674703598,-0.00850438978523,0.377384960651,-0.234530001879,-0.00109856855124
1536240523298426103,21578,1536240523269729361,Quadricopter_base,-0.397396087646,0.0122751295567,-0.00408768514171,0.396801501513,-0.249489992857,-0.000954697956331
1536240523355357540,21579,1536240523329068068,Quadricopter_base,-0.422127306461,0.0120385587215,-0.00145554635674,0.374471217394,-0.232771933079,-0.00165302492678
1536240523417546025,21580,1536240523380835943,Quadricopter_base,-0.435399472713,0.0116453915834,0.003591776127,0.346690356731,-0.215170547366,-0.00210988637991
1536240523484078797,21581,1536240523450008411,Quadricopter_base,-0.438402146101,0.0111536234617,0.00614523887634,0.317310273647,-0.196273088455,-0.00242508063093
