%time,field.header.seq,field.header.stamp,field.header.frame_id,field.twist.linear.x,field.twist.linear.y,field.twist.linear.z,field.twist.angular.x,field.twist.angular.y,field.twist.angular.z
1536240442359933499,20101,1536240442220425512,Quadricopter_base,-5.56735903956e-06,0.00112160900608,-0.000572204589844,0.000111966524855,0.00031976410537,-0.00196814630181
1536240442440736242,20102,1536240442399143567,Quadricopter_base,-9.82743222266e-06,0.00114037690219,0.000571012496948,-0.000158547467436,-0.000476009154227,-0.00197887443937
1536240442497904290,20103,1536240442471903683,Quadricopter_base,-7.86251621321e-06,0.00113099173177,-0.000569820404053,8.93989927135e-05,0.000254838116234,-0.00194549607113
1536240442554076854,20104,1536240442527188484,Quadricopter_base,-1.13425194286e-05,0.00112979125697,0.000571012496948,-0.00018672956503,-0.000569863070268,-0.00195860839449
1536240442607683328,20105,1536240442580337895,Quadricopter_base,-1.81916111615e-05,0.00112738960888,-0.000571012496948,0.000189166763448,0.000567470560782,-0.00197053444572
1536240442671348776,20106,1536240442637499795,Quadricopter_base,-7.57610541768e-06,0.00110083795153,0.000569820404053,-9.01257662917e-05,-0.00026979969698,-0.00197529769503
1536240442723787416,20107,1536240442699393154,Quadricopter_base,-3.69746703655e-06,0.00107188685797,-0.000571012496948,0.00018195254961,0.000520440458786,-0.0020623228047
1536240442782938896,20108,1536240442750345510,Quadricopter_base,-0.0021414514631,0.00107915792614,0.000582933425903,0.174535036087,-0.0597976446152,-0.00153351295739
1536240442844325115,20109,1536240442816145703,Quadricopter_base,-0.00473108142614,0.0010878565954,-0.000405311584473,0.584232449532,-0.207601666451,0.000909151334781
1536240442897342280,20110,1536240442868873238,Quadricopter_base,0.00467652501538,0.00117687147576,0.00100135803223,0.882545232773,-0.321530073881,0.00330797722563
1536240442954117506,20111,1536240442927043683,Quadricopter_base,0.0368346385658,0.000939429737628,-0.000855922291521,0.877362787724,-0.314569324255,0.00192692875862
1536240443016030569,20112,1536240442987748183,Quadricopter_base,0.0954021066427,0.000463420525193,-0.0030207647942,0.639537513256,-0.22059366107,-0.00158615771215
1536240443077523548,20113,1536240443050034629,Quadricopter_base,0.172281742096,-7.95385640231e-05,-0.00994563288987,0.416831791401,-0.131552621722,-0.00218865997158
1536240443133484334,20114,1536240443102986068,Quadricopter_base,0.261272937059,-0.000374764262233,-0.0161492787302,0.341624379158,-0.110264137387,-0.00314304814674
1536240443193340312,20115,1536240443165368705,Quadricopter_base,0.358715385199,-0.000566922069993,-0.0255906507373,0.309577345848,-0.105416163802,-0.00427203159779
1536240443253428883,20116,1536240443225849169,Quadricopter_base,0.465998589993,-0.000799611269031,-0.0338494703174,0.215972930193,-0.0733571723104,-0.00436534360051
1536240443306585505,20117,1536240443279621606,Quadricopter_base,0.579860389233,-0.000949293316808,-0.0448846817017,0.0868712514639,-0.0221463460475,-0.00255486322567
1536240443365607317,20118,1536240443335753477,Quadricopter_base,0.698121070862,-0.000605448789429,-0.0533056110144,-0.0316803865135,0.017994588241,-0.00218048528768
1536240443420858424,20119,1536240443393873201,Quadricopter_base,0.8163869977,0.000279009254882,-0.0627303123474,-0.130271315575,0.0476680248976,-0.00278598279692
1536240443479956179,20120,1536240443450204125,Quadricopter_base,0.93310135603,0.00169446982909,-0.0679659768939,-0.218115463853,0.0715156048536,-0.0037085681688
1536240443540193456,20121,1536240443513153864,Quadricopter_base,1.04492735863,0.00343525479548,-0.0731360837817,-0.291019290686,0.0958775132895,-0.00314424955286
1536240443625237674,20122,1536240443595549858,Quadricopter_base,1.15072715282,0.00537300109863,-0.0733864307404,-0.363276034594,0.119364969432,-0.00258706719615
1536240443711656284,20123,1536240443672245199,Quadricopter_base,1.24785578251,0.00741094304249,-0.0732862949371,-0.431011199951,0.143959194422,-0.00165604171343
1536240443782204104,20124,1536240443743005938,Quadricopter_base,1.33539915085,0.00965860486031,-0.0682723522186,-0.542736113071,0.180111199617,-0.00114603212569
1536240443857250522,20125,1536240443817340260,Quadricopter_base,1.41029965878,0.0117718586698,-0.0630784109235,-0.670871734619,0.225960314274,0.000296877726214
1536240443923224083,20126,1536240443886865131,Quadricopter_base,1.4677298069,0.0131800472736,-0.0530684031546,-0.689506530762,0.232519596815,0.000347178021912
1536240443988986082,20127,1536240443951772433,Quadricopter_base,1.50631606579,0.0137329995632,-0.0438153743744,-0.623057365417,0.209704786539,-0.00096842815401
1536240444049895382,20128,1536240444017309607,Quadricopter_base,1.52672064304,0.013416737318,-0.031681060791,-0.503959715366,0.169706344604,-0.00231701508164
1536240444101559384,20129,1536240444074997073,Quadricopter_base,1.5326679945,0.0125122070312,-0.0221788901836,-0.386484712362,0.131398528814,-0.00327738956548
1536240444158595710,20130,1536240444131564945,Quadricopter_base,1.52728295326,0.0112344324589,-0.0111329564825,-0.314164280891,0.107662834227,-0.00348880304955
1536240444214877255,20131,1536240444185083806,Quadricopter_base,1.5131431818,0.00971567630768,-0.00337719847448,-0.251933217049,0.0892113819718,-0.00350747839548
1536240444269340267,20132,1536240444242917974,Quadricopter_base,1.49175012112,0.00808280706406,0.00562310963869,-0.220562696457,0.0775570496917,-0.00329060456716
1536240444323488851,20133,1536240444296943256,Quadricopter_base,1.46480858326,0.0063411295414,0.0112640904263,-0.217762574553,0.0786883085966,-0.00308190658689
1536240444388540712,20134,1536240444352360085,Quadricopter_base,1.43179106712,0.00452044606209,0.0180912129581,-0.209226429462,0.0762745738029,-0.0027967565693
1536240444446252389,20135,1536240444419965625,Quadricopter_base,1.39331352711,0.00270426273346,0.0215089339763,-0.184911996126,0.0697718262672,-0.00277368328534
1536240444500925821,20136,1536240444475318692,Quadricopter_base,1.34958291054,0.000929713190999,0.0261390227824,-0.175294786692,0.0663467347622,-0.00264784879982
1536240444563246808,20137,1536240444536910475,Quadricopter_base,1.3013137579,-0.000756561756134,0.0274527072906,-0.150197222829,0.0604939162731,-0.00276844436303
1536240444618915332,20138,1536240444594363394,Quadricopter_base,1.24800384045,-0.00217202305794,0.0300204772502,-0.085454300046,0.03637958318,-0.00255502015352
1536240444677829676,20139,1536240444653259982,Quadricopter_base,1.19202661514,-0.00331404805183,0.0295436382294,-0.021388316527,0.0141100687906,-0.00251946947537
1536240444732950530,20140,1536240444707680937,Quadricopter_base,1.13461506367,-0.00421991944313,0.0308394581079,0.0284787435085,-0.00347545137629,-0.00237641716376
1536240444787876582,20141,1536240444763596350,Quadricopter_base,1.07767391205,-0.00490629673004,0.0295674838126,0.0730715841055,-0.0175884719938,-0.00244916859083
1536240444841731762,20142,1536240444815941081,Quadricopter_base,1.02190756798,-0.00531351566315,0.0304639302194,0.111042961478,-0.0322528108954,-0.00220622983761
1536240444895356123,20143,1536240444869760016,Quadricopter_base,0.968824863434,-0.00554835796356,0.0290978010744,0.144541710615,-0.044145245105,-0.0021318604704
1536240444946843267,20144,1536240444921840843,Quadricopter_base,0.918952345848,-0.0055478811264,0.0301194190979,0.172755360603,-0.0559565387666,-0.00183926941827
1536240445002131474,20145,1536240444975812517,Quadricopter_base,0.873433709145,-0.00546842813492,0.0290131568909,0.195252329111,-0.0636933669448,-0.00185198523104
1536240445062470383,20146,1536240445037052577,Quadricopter_base,0.832704901695,-0.00520527362823,0.0303542651236,0.21025878191,-0.0707519724965,-0.00173200876452
1536240445123368297,20147,1536240445089790360,Quadricopter_base,0.797284007072,-0.00488319993019,0.0295364875346,0.227651879191,-0.0766373723745,-0.00176778750028
1536240445187405097,20148,1536240445158452543,Quadricopter_base,0.767423689365,-0.0044060498476,0.0310790557414,0.255210876465,-0.0880069881678,-0.0016498878831
1536240445248607706,20149,1536240445218885532,Quadricopter_base,0.743931055069,-0.0038935393095,0.0303769111633,0.27733707428,-0.0961140915751,-0.00166749814525
1536240445311324642,20150,1536240445283876312,Quadricopter_base,0.727643430233,-0.00329157710075,0.0319266319275,0.283738017082,-0.100302517414,-0.0016913653817
1536240445367058135,20151,1536240445340428095,Quadricopter_base,0.718782603741,-0.00267006456852,0.0310611724854,0.272360116243,-0.0963249728084,-0.00179296487477
1536240445427736496,20152,1536240445401706787,Quadricopter_base,0.717418909073,-0.00202248990536,0.0322258472443,0.250371128321,-0.0901129469275,-0.00189287425019
1536240445481392690,20153,1536240445454802831,Quadricopter_base,0.722831070423,-0.00135216116905,0.0307702999562,0.214540049434,-0.0772821903229,-0.0020173676312
1536240445551987038,20154,1536240445514179220,Quadricopter_base,0.734377026558,-0.000691726861987,0.0312054175884,0.182645395398,-0.0668917819858,-0.00198313361034
1536240445610525594,20155,1536240445583965608,Quadricopter_base,0.750800967216,-2.94149958791e-05,0.0289881173521,0.156164780259,-0.0572094544768,-0.00202442496084
1536240445672078955,20156,1536240445646299918,Quadricopter_base,0.771636486053,0.000624358595815,0.0286793671548,0.141131937504,-0.05293629691,-0.00199066265486
1536240445735937537,20157,1536240445707699599,Quadricopter_base,0.796170711517,0.00122168660164,0.0257754288614,0.123062051833,-0.0464477390051,-0.00198424840346
1536240445793290283,20158,1536240445766512911,Quadricopter_base,0.824555516243,0.00179770588875,0.0248336754739,0.0860854685307,-0.0340664312243,-0.00203306926414
1536240445852891488,20159,1536240445825942616,Quadricopter_base,0.855414628983,0.0023564696312,0.021409990266,0.0501728057861,-0.0200061853975,-0.00191463611554
1536240445908619294,20160,1536240445881983471,Quadricopter_base,0.888185083866,0.00290217995644,0.0201308727264,0.0150850731879,-0.00870151072741,-0.00191488466226
1536240445967469307,20161,1536240445939755679,Quadricopter_base,0.921578645706,0.00339663028717,0.0165557898581,-0.0165065284818,0.00349820847623,-0.00183312245645
1536240446027664348,20162,1536240445999538198,Quadricopter_base,0.955019712448,0.00388926267624,0.0153136253357,-0.0432074666023,0.0119709605351,-0.00182112143375
1536240446094452871,20163,1536240446058356686,Quadricopter_base,0.98751193285,0.00430181622505,0.0119316568598,-0.0664531886578,0.0212200395763,-0.00175507611129
1536240446157201719,20164,1536240446127148030,Quadricopter_base,1.0187073946,0.00468629598618,0.0110042085871,-0.0898475497961,0.0285252016038,-0.00178390415385
1536240446212475658,20165,1536240446190402152,Quadricopter_base,1.04778623581,0.0049849152565,0.00802517309785,-0.113493271172,0.0378553271294,-0.00171916664112
1536240446268742788,20166,1536240446242089932,Quadricopter_base,1.07420182228,0.00526148080826,0.0075709791854,-0.132385283709,0.0438511073589,-0.00175076874439
1536240446322559976,20167,1536240446297232717,Quadricopter_base,1.09725904465,0.00535476207733,0.00509023852646,-0.136755973101,0.0470049753785,-0.00170642696321
1536240446379359726,20168,1536240446352467094,Quadricopter_base,1.11676645279,0.00540152192116,0.00512241991237,-0.135171353817,0.0457623973489,-0.00178142392542
1536240446444277909,20169,1536240446417345173,Quadricopter_base,1.13276386261,0.00535425543785,0.00306606362574,-0.134052082896,0.0467199236155,-0.00181024242193
1536240446499505147,20170,1536240446473359302,Quadricopter_base,1.14533627033,0.00522297620773,0.00344634149224,-0.138472005725,0.0475638210773,-0.00187382567674
1536240446553420804,20171,1536240446528004966,Quadricopter_base,1.15449357033,0.00501853227615,0.00166893017013,-0.149865999818,0.0527959764004,-0.0018798999954
1536240446610881226,20172,1536240446585246550,Quadricopter_base,1.15969491005,0.004723995924,0.00227212905884,-0.1487454772,0.0521306023002,-0.00185396126471
1536240446663902489,20173,1536240446637920706,Quadricopter_base,1.160851717,0.00436288118362,0.000649690278806,-0.127598807216,0.0459318645298,-0.00193213822786
1536240446724923854,20174,1536240446697307122,Quadricopter_base,1.15840506554,0.00397354364395,0.00134110555518,-0.112415835261,0.0395312085748,-0.00204306351952
1536240446787485009,20175,1536240446754876626,Quadricopter_base,1.15304505825,0.00350123643875,-0.000241995381657,-0.101965427399,0.0374224931002,-0.00206787697971
1536240446852366398,20176,1536240446823924473,Quadricopter_base,1.14482545853,0.0030492246151,0.000451801082818,-0.0953979194164,0.0344492420554,-0.00207833992317
1536240446908318848,20177,1536240446881575336,Quadricopter_base,1.13417267799,0.0025492310524,-0.0011432163883,-0.0899770259857,0.0338984951377,-0.00209231837653
1536240446965149674,20178,1536240446938808268,Quadricopter_base,1.120916605,0.00206387042999,-0.000476837216411,-0.0781084522605,0.0290070995688,-0.00203786138445
1536240447036578020,20179,1536240447003312530,Quadricopter_base,1.10544514656,0.00161769986153,-0.00210404465906,-0.0551187843084,0.0219067148864,-0.00211510783993
1536240447101483688,20180,1536240447066650482,Quadricopter_base,1.08810865879,0.00119891762733,-0.00146151008084,-0.0290491152555,0.0114528983831,-0.0020664576441
1536240447154701824,20181,1536240447129164415,Quadricopter_base,1.06991434097,0.000790566205978,-0.00306844874285,-0.0116534158587,0.00629170751199,-0.00213777041063
1536240447208478120,20182,1536240447180975256,Quadricopter_base,1.05114865303,0.000460982322693,-0.0023460383527,0.000477743160445,0.00162479712162,-0.00212760595605
1536240447266719033,20183,1536240447241370215,Quadricopter_base,1.03230392933,0.000158429145813,-0.00385165237822,0.0160171762109,-0.00301245017909,-0.00212379405275
1536240447322237470,20184,1536240447297029891,Quadricopter_base,1.01355242729,-3.57329845428e-05,-0.00299930293113,0.0314521193504,-0.0101319309324,-0.00202877260745
1536240447378958742,20185,1536240447354317111,Quadricopter_base,0.995551586151,-0.000235080718994,-0.00434041209519,0.0457973778248,-0.0145303504542,-0.00204394059256
1536240447429343427,20186,1536240447404450704,Quadricopter_base,0.978524506092,-0.000361740589142,-0.00331163383089,0.0562136620283,-0.0191033799201,-0.00201256014407
1536240447479739500,20187,1536240447455535621,Quadricopter_base,0.962899267673,-0.000461429357529,-0.00446319626644,0.0651000142097,-0.0212220698595,-0.00207760185003
1536240447533861514,20188,1536240447506161658,Quadricopter_base,0.948879957199,-0.00048702955246,-0.00324726104736,0.0688922554255,-0.0239539071918,-0.00197577872314
1536240447585009415,20189,1536240447559599729,Quadricopter_base,0.936652421951,-0.000499188899994,-0.00422954559326,0.0696948766708,-0.0236209705472,-0.00201229378581
1536240447644304424,20190,1536240447610176734,Quadricopter_base,0.926166415215,-0.000445544719696,-0.00286817527376,0.0739266499877,-0.0261290166527,-0.00196852860972
1536240447709504111,20191,1536240447674182369,Quadricopter_base,0.917548894882,-0.000378608703613,-0.00373959564604,0.0786307156086,-0.0270698685199,-0.00202274881303
1536240447763319535,20192,1536240447739064218,Quadricopter_base,0.910914242268,-0.000279426574707,-0.00228524161503,0.0840711146593,-0.0299985483289,-0.0019657027442
1536240447812760114,20193,1536240447787580163,Quadricopter_base,0.906354546547,-0.000162124633789,-0.00309109687805,0.0924507826567,-0.0322714485228,-0.00200355285779
1536240447864177316,20194,1536240447839511183,Quadricopter_base,0.904308021069,8.37445259094e-06,-0.00160574913025,0.0865661352873,-0.0316846594214,-0.00196149339899
1536240447914449533,20195,1536240447889560214,Quadricopter_base,0.904715895653,0.000175803899765,-0.00240206671879,0.0673553869128,-0.023776486516,-0.00200167042203
1536240447970773156,20196,1536240447945760066,Quadricopter_base,0.907065689564,0.00036346912384,-0.000944138097111,0.053152102977,-0.0194516219199,-0.00194123992696
1536240448027927384,20197,1536240447998096516,Quadricopter_base,0.91081237793,0.000568926334381,-0.00178813934326,0.0500605851412,-0.0177044961601,-0.00196686876006
1536240448081848741,20198,1536240448057224820,Quadricopter_base,0.915893852711,0.000775367021561,-0.000380277662771,0.0510332360864,-0.0193925090134,-0.00193307886366
1536240448138783119,20199,1536240448111951270,Quadricopter_base,0.92226266861,0.000981658697128,-0.00128030811902,0.0494639240205,-0.0180755164474,-0.00199047662318
1536240448195264516,20200,1536240448170297526,Quadricopter_base,0.930110991001,0.00118601322174,5.60294065508e-05,0.0387757793069,-0.0151424705982,-0.00197463762015
1536240448249200097,20201,1536240448222923890,Quadricopter_base,0.939093589783,0.001365929842,-0.000915525888558,0.0266766902059,-0.00962719600648,-0.00195579649881
1536240448305585310,20202,1536240448273877371,Quadricopter_base,0.948917865753,0.00159549713135,0.000361203041393,0.016241479665,-0.00699304742739,-0.00194199057296
1536240448368220377,20203,1536240448338987288,Quadricopter_base,0.959240615368,0.00175973773003,-0.000667569984216,0.00750685343519,-0.00303455628455,-0.00193535652943
1536240448422312521,20204,1536240448394806913,Quadricopter_base,0.969910740852,0.0019659101963,0.000574588950258,-0.00127271516249,-0.000911218696274,-0.001943285577
1536240448476261565,20205,1536240448449420210,Quadricopter_base,0.980593800545,0.00210013985634,-0.000481606286485,-0.00910052470863,0.00283842161298,-0.00193127256352
1536240448531868138,20206,1536240448505057197,Quadricopter_base,0.991208910942,0.00228518247604,0.000740290153772,-0.0171935483813,0.00480128405616,-0.00194695685059
1536240448584258561,20207,1536240448558646088,Quadricopter_base,1.0013884306,0.00237408280373,-0.000319482089253,-0.0237646102905,0.00832126010209,-0.00191681599244
1536240448645072684,20208,1536240448613042655,Quadricopter_base,1.01108586788,0.00249084830284,0.000901224208064,-0.0302564464509,0.00973888207227,-0.0019215864595
1536240448710302057,20209,1536240448674251159,Quadricopter_base,1.0200163126,0.00258040428162,-0.000151395026478,-0.0345148891211,0.0123158041388,-0.00190942408517
1536240448781552039,20210,1536240448745585199,Quadricopter_base,1.02812385559,0.00264301896095,0.00107884430327,-0.0405847989023,0.0134480465204,-0.00194647838362
1536240448843801199,20211,1536240448817844773,Quadricopter_base,1.0352960825,0.0026661157608,2.74188787444e-05,-0.0479505993426,0.0170516185462,-0.00193373591173
1536240448907650958,20212,1536240448871702469,Quadricopter_base,1.04127252102,0.00270450115204,0.00126480939798,-0.0551910847425,0.0187628865242,-0.00194814230781
1536240448973356850,20213,1536240448938675743,Quadricopter_base,1.0458637476,0.00266298651695,0.000219345121877,-0.0556507520378,0.0201577227563,-0.00190008431673
1536240449033322321,20214,1536240449006519850,Quadricopter_base,1.04891049862,0.00261524319649,0.00144839298446,-0.0521925128996,0.0179845262319,-0.00189660536125
1536240449097225612,20215,1536240449070054492,Quadricopter_base,1.05061483383,0.00253841280937,0.00039100649883,-0.0492614172399,0.0179565753788,-0.00195748591796
1536240449155727359,20216,1536240449128894493,Quadricopter_base,1.05096578598,0.00243496894836,0.00159740471281,-0.0452273674309,0.0157440789044,-0.00194513169117
1536240449207861599,20217,1536240449182735817,Quadricopter_base,1.05008196831,0.00234159827232,0.000510215817485,-0.0404337793589,0.0150667726994,-0.00199317210354
1536240449262206286,20218,1536240449233203548,Quadricopter_base,1.04807066917,0.00221326947212,0.00168204342481,-0.0361392945051,0.0127003584057,-0.00197477010079
1536240449320174453,20219,1536240449294481345,Quadricopter_base,1.04506075382,0.00209280848503,0.000553131103516,-0.0278519801795,0.0108185429126,-0.00203169928864
1536240449378111467,20220,1536240449351568622,Quadricopter_base,1.04121208191,0.00195640325546,0.00169157900382,-0.0206910986453,0.00720029324293,-0.00204311520793
1536240449437908644,20221,1536240449410659861,Quadricopter_base,1.03679656982,0.00181353092194,0.00052690517623,-0.0167501848191,0.00676797656342,-0.00208585243672
1536240449492592641,20222,1536240449466603821,Quadricopter_base,1.03188157082,0.00172474980354,0.00163674354553,-0.014405656606,0.00514396838844,-0.00199831067584
1536240449553591183,20223,1536240449528744158,Quadricopter_base,1.02660322189,0.0015721321106,0.000448226928711,-0.0100097618997,0.00461115920916,-0.00202512182295
1536240449610401704,20224,1536240449583323062,Quadricopter_base,1.02091681957,0.00144910812378,0.00153183948714,-0.00451701181009,0.00161205406766,-0.00197842088528
1536240449670334703,20225,1536240449642829249,Quadricopter_base,1.01506686211,0.00133007764816,0.000330208538799,0.00170438212808,0.000296473095659,-0.00206444389187
1536240449734324976,20226,1536240449700217514,Quadricopter_base,1.0092164278,0.0012386739254,0.00140428531449,0.00634768605232,-0.00230575120077,-0.00200423621573
1536240449805026133,20227,1536240449769049295,Quadricopter_base,1.00347745419,0.00114804506302,0.000197887115064,0.0109863933176,-0.00298126158305,-0.0020179473795
1536240449869205237,20228,1536240449840521106,Quadricopter_base,0.997930884361,0.00108709931374,0.00127196207177,0.0150445615873,-0.0053552123718,-0.00199235416949
1536240449923400599,20229,1536240449904627753,Quadricopter_base,0.992761254311,0.00101748108864,7.0334339398e-05,0.019927771762,-0.00615405291319,-0.00187472719699
1536240449979988875,20230,1536240449953845717,Quadricopter_base,0.988062739372,0.000943660736084,0.00115513848141,0.023022569716,-0.00836204923689,-0.00195875554346
1536240450039812029,20231,1536240450009131805,Quadricopter_base,0.98392701149,0.000919878482819,-3.93386544602e-05,0.0234403908253,-0.00759418169037,-0.00204828614369
1536240450100860256,20232,1536240450067635806,Quadricopter_base,0.980434298515,0.000970989465714,0.001056194189,0.0225362833589,-0.00829139631242,-0.00202006893232
1536240450170018317,20233,1536240450136972897,Quadricopter_base,0.977478384972,0.000944465398788,-0.000129938242026,0.0242827869952,-0.00804914906621,-0.00198813481256
1536240450228056220,20234,1536240450202032176,Quadricopter_base,0.97518748045,0.000962525606155,0.000969171524048,0.0260591730475,-0.00976257119328,-0.00200169533491
1536240450283818203,20235,1536240450257124773,Quadricopter_base,0.97349178791,0.000969499349594,-0.000206231910852,0.0284304004163,-0.0096697025001,-0.00203024619259
1536240450345439784,20236,1536240450318691638,Quadricopter_base,0.972577512264,0.00106233358383,0.000896453799214,0.0269457511604,-0.010213018395,-0.00201452174224
1536240450402384090,20237,1536240450376618074,Quadricopter_base,0.972420990467,0.0010612308979,-0.000278949621134,0.0229247566313,-0.00777246197686,-0.00201963842846
1536240450468143913,20238,1536240450433565466,Quadricopter_base,0.972880780697,0.00112476944923,0.000828504096717,0.0198381766677,-0.00761750666425,-0.00196233810857
1536240450535377719,20239,1536240450504281869,Quadricopter_base,0.973880827427,0.00118687748909,-0.000348091067281,0.0185882523656,-0.00626929523423,-0.00197106460109
1536240450594353699,20240,1536240450568452804,Quadricopter_base,0.975383996964,0.00126180052757,0.000756979628932,0.0172224156559,-0.00681036803871,-0.00193733500782
1536240450652136250,20241,1536240450624824837,Quadricopter_base,0.977334976196,0.00131574273109,-0.000417232979089,0.0164468754083,-0.00567076168954,-0.00202238303609
1536240450710076604,20242,1536240450684112138,Quadricopter_base,0.979776263237,0.00141677260399,0.000686645915266,0.0125666884705,-0.0053186295554,-0.00193990534171
1536240450770334995,20243,1536240450744363839,Quadricopter_base,0.982590973377,0.00144746899605,-0.000487566227093,0.00786568783224,-0.00256309425458,-0.00199608318508
1536240450824028422,20244,1536240450799090448,Quadricopter_base,0.985653460026,0.00155001878738,0.00061392824864,0.00363635551184,-0.00195200776216,-0.00196963804774
1536240450881633570,20245,1536240450856338306,Quadricopter_base,0.98886936903,0.00159773230553,-0.00055789941689,0.00128740502987,-0.000181055685971,-0.00194058823399
1536240450938048073,20246,1536240450912651173,Quadricopter_base,0.992135167122,0.00167608261108,0.000553130463231,-0.0014803733211,-0.000261964189121,-0.00196517026052
1536240450992578009,20247,1536240450968816828,Quadricopter_base,0.995399594307,0.00170475244522,-0.000615119934082,-0.00365847698413,0.00151641096454,-0.00197490304708
1536240451046122389,20248,1536240451022163347,Quadricopter_base,0.998575150967,0.00177818536758,0.000498294422869,-0.00634228857234,0.00155628891662,-0.00189389451407
1536240451097600996,20249,1536240451073617777,Quadricopter_base,1.00164663792,0.00180500745773,-0.00066041899845,-0.00806458666921,0.00321467174217,-0.00192718254402
1536240451148717210,20250,1536240451124901470,Quadricopter_base,1.00451517105,0.00185942649841,0.000463724631118,-0.00992804765701,0.00290525238961,-0.00195417902432
1536240451211953835,20251,1536240451180234398,Quadricopter_base,1.00712001324,0.0018582046032,-0.000690221844707,-0.0107311792672,0.0042058522813,-0.00199237489142
1536240451274396269,20252,1536240451243033299,Quadricopter_base,1.00947070122,0.00188499689102,0.000443458615337,-0.0118720438331,0.00364050269127,-0.00200676498935
1536240451331255987,20253,1536240451306832424,Quadricopter_base,1.01154994965,0.0018997490406,-0.000705718586687,-0.0134060010314,0.00511340564117,-0.00196353392676
1536240451386541983,20254,1536240451361128242,Quadricopter_base,1.01327335835,0.00191339850426,0.000433921843069,-0.0159094333649,0.00510750850663,-0.00195480138063
1536240451441104223,20255,1536240451417781317,Quadricopter_base,1.0146201849,0.00189784169197,-0.000705719110556,-0.015686808154,0.00614497251809,-0.00196517864242
1536240451495263184,20256,1536240451471445245,Quadricopter_base,1.01552331448,0.00189793109894,0.000438690185547,-0.0145233320072,0.00473782699555,-0.0019384942716
1536240451553175909,20257,1536240451527561744,Quadricopter_base,1.01602864265,0.00187367200851,-0.000698566436768,-0.0127956252545,0.00507598463446,-0.0019948433619
1536240451605180689,20258,1536240451580966356,Quadricopter_base,1.01620292664,0.00183606147766,0.000448226928711,-0.0122301010415,0.00390539155342,-0.00198298529722
1536240451667107577,20259,1536240451634160997,Quadricopter_base,1.01602315903,0.00182265043259,-0.000685453473125,-0.0117256967351,0.00473572220653,-0.00206763599999
1536240451732071217,20260,1536240451698811809,Quadricopter_base,1.0155518055,0.00184857845306,0.000457763700979,-0.0110942218453,0.00356278335676,-0.00199912744574
1536240451785890927,20261,1536240451762348724,Quadricopter_base,1.01478290558,0.00176990032196,-0.000672340218443,-0.00978248380125,0.0039971768856,-0.00195415504277
1536240451846368984,20262,1536240451820152432,Quadricopter_base,1.01375925541,0.00171640515327,0.000475645123515,-0.00961989536881,0.00303943175822,-0.00192579452414
1536240451899997332,20263,1536240451875491313,Quadricopter_base,1.01246023178,0.00169333815575,-0.000661611498799,-0.00745717249811,0.00338905397803,-0.00196832348593
1536240451953910357,20264,1536240451930470571,Quadricopter_base,1.01090872288,0.00163665413857,0.000487566081574,-0.00532803498209,0.00163381639868,-0.00197213189676
1536240452010219904,20265,1536240451983351409,Quadricopter_base,1.00920319557,0.00158524513245,-0.000650882720947,-0.00297852046788,0.0017047971487,-0.00202887854539
1536240452065206319,20266,1536240452040951437,Quadricopter_base,1.0073851347,0.00155898928642,0.00049471843522,-0.00153632555157,0.000151619809913,-0.00195254164282
1536240452122536770,20267,1536240452097415353,Quadricopter_base,1.00557887554,0.00153151154518,-0.000637769757304,0.00021981811733,0.000507163698785,-0.00205024704337
1536240452183391182,20268,1536240452153834022,Quadricopter_base,1.00370395184,0.00149416923523,0.000509023433551,0.0012085569324,-0.000791855971329,-0.00196932908148
1536240452250885624,20269,1536240452217965657,Quadricopter_base,1.00185215473,0.00147917866707,-0.00062823301414,0.00286727398634,-0.00041899443022,-0.00203839270398
1536240452316415465,20270,1536240452284244111,Quadricopter_base,1.0000320673,0.00143128633499,0.000518560351338,0.00397034082562,-0.00178128643893,-0.0019633313641
1536240452380558662,20271,1536240452346490240,Quadricopter_base,0.99834305048,0.00141227245331,-0.000615120108705,0.00578197697178,-0.00150062725879,-0.0019724748563
1536240452441982305,20272,1536240452409344258,Quadricopter_base,0.996810913086,0.00141122937202,0.00053048110567,0.00678573548794,-0.00284087145701,-0.00196192902513
1536240452500451249,20273,1536240452474747746,Quadricopter_base,0.995378851891,0.00138849020004,-0.000600814819336,0.00794517993927,-0.00228615384549,-0.00199978984892
1536240452549399568,20274,1536240452524793529,Quadricopter_base,0.994168937206,0.00139588117599,0.000544786395039,0.00792300142348,-0.00329251866788,-0.00195666356012
1536240452603642808,20275,1536240452579646088,Quadricopter_base,0.993153452873,0.00137761235237,-0.000587701797485,0.00820716097951,-0.00243691704236,-0.00201249262318
1536240452657494287,20276,1536240452633904727,Quadricopter_base,0.992398738861,0.00139462947845,0.000559091567993,0.00696133356541,-0.00305225583725,-0.00198111589998
1536240452711842840,20277,1536240452682444566,Quadricopter_base,0.991796374321,0.00138920545578,-0.000573396740947,0.00678761349991,-0.00199463707395,-0.00201418250799
1536240452769156827,20278,1536240452745412887,Quadricopter_base,0.991390347481,0.00137284398079,0.000572204589844,0.00692492444068,-0.00298801856115,-0.00193603849038
1536240452827394749,20279,1536240452802408515,Quadricopter_base,0.99114382267,0.00136923789978,-0.00056266784668,0.00745071610436,-0.00220358977094,-0.00201368494891
1536240452885978651,20280,1536240452856970787,Quadricopter_base,0.991091310978,0.00141572952271,0.000584125577006,0.00696579366922,-0.00298943929374,-0.00195407681167
1536240452940104310,20281,1536240452915072563,Quadricopter_base,0.991289198399,0.00139331817627,-0.000551938952412,0.00688825687394,-0.00202378164977,-0.00194824137725
1536240452994235352,20282,1536240452969617997,Quadricopter_base,0.99161195755,0.00142061710358,0.000592470227275,0.00595855293795,-0.00268246536143,-0.00198815460317
1536240453051896642,20283,1536240453026034413,Quadricopter_base,0.992100775242,0.00143975019455,-0.000543594243936,0.00524680223316,-0.00140627077781,-0.00200136378407
1536240453105800313,20284,1536240453081935474,Quadricopter_base,0.99273699522,0.00147077441216,0.000597238482442,0.00374057563022,-0.0018706980627,-0.00193695083726
1536240453162247843,20285,1536240453136386431,Quadricopter_base,0.993521988392,0.00148823857307,-0.00054001796525,0.00326133565977,-0.000772099825554,-0.00195217563305
1536240453218385803,20286,1536240453191026766,Quadricopter_base,0.994382858276,0.00149595737457,0.000603198830504,0.00223805150017,-0.00140017841477,-0.00200215773657
1536240453272880671,20287,1536240453249205737,Quadricopter_base,0.995284855366,0.00152805447578,-0.000536442094017,0.00171764928382,-0.00018679141067,-0.00196828087792
1536240453321960729,20288,1536240453296131540,Quadricopter_base,0.996257126331,0.00153383612633,0.000602006970439,0.000543044821825,-0.00072413176531,-0.0019301965367
1536240453377695757,20289,1536240453353477461,Quadricopter_base,0.997259557247,0.00154560804367,-0.000538826338015,2.7570220027e-06,0.000457176793134,-0.00201306911185
1536240453425919028,20290,1536240453401575344,Quadricopter_base,0.998282313347,0.00158679485321,0.000603198597673,-0.0011365005048,-0.000148299383,-0.00204060249962
1536240453476897330,20291,1536240453452305585,Quadricopter_base,0.999279201031,0.0015871822834,-0.000538826046977,-0.00155651604291,0.00096333399415,-0.00202328641899
1536240453528626978,20292,1536240453504936492,Quadricopter_base,1.0002348423,0.00163951516151,0.000598430633545,-0.00239117094316,0.000282619323116,-0.00195048446767
1536240453572668177,20293,1536240453556084083,Quadricopter_base,1.00111246109,0.0016031563282,-0.000540018139873,-0.0025064337533,0.00135172950104,-0.00198432151228
1536240453628868787,20294,1536240453599287685,Quadricopter_base,1.00196647644,0.00162777304649,0.000598430575337,-0.00333264144138,0.000717879272997,-0.00195190252271
1536240453688275208,20295,1536240453657959309,Quadricopter_base,1.00274014473,0.00162157416344,-0.000541210116353,-0.0031533469446,0.00171193853021,-0.00194878457114
1536240453745248271,20296,1536240453720886381,Quadricopter_base,1.00341939926,0.0016508102417,0.000593662320171,-0.00383780105039,0.000962043763138,-0.00193289120216
1536240453793042411,20297,1536240453768745369,Quadricopter_base,1.00399446487,0.00163182616234,-0.000544786395039,-0.00433858856559,0.0020182991866,-0.00197318103164
1536240453844868611,20298,1536240453819768030,Quadricopter_base,1.00449252129,0.00165477395058,0.000593662203755,-0.00504028936848,0.00126824574545,-0.00196545338258
1536240453893093850,20299,1536240453868749953,Quadricopter_base,1.00481653214,0.00165799260139,-0.000549554824829,-0.00415943842381,0.00205024657771,-0.00207573315129
1536240453943287289,20300,1536240453919071464,Quadricopter_base,1.00505912304,0.00165447592735,0.00059247011086,-0.0039163720794,0.000981745426543,-0.00194823089987
1536240453992011017,20301,1536240453968088854,Quadricopter_base,1.00520241261,0.00164312124252,-0.000550746917725,-0.00342586333863,0.00172672700137,-0.00193372252397
1536240454048001360,20302,1536240454023877255,Quadricopter_base,1.00516152382,0.00163227319717,0.000590085983276,-0.00372500531375,0.000842036213726,-0.00192065595184
1536240454103209823,20303,1536240454074323000,Quadricopter_base,1.00652444363,0.00169017910957,-0.000550746859517,-0.116062574089,0.0428218580782,-0.0020043910481
1536240454162392673,20304,1536240454139004422,Quadricopter_base,1.00692594051,0.00156387686729,0.000633001560345,-0.294741660357,0.113119333982,-0.0010431332048
1536240454210355661,20305,1536240454186185122,Quadricopter_base,1.00045251846,0.00133648514748,-0.000491141865496,-0.359103918076,0.140365928411,-0.00039598744479
1536240454268076050,20306,1536240454238281050,Quadricopter_base,0.983597457409,0.00109168887138,0.000400544056902,-0.310484588146,0.117803663015,-0.000921221449971
1536240454335512524,20307,1536240454305946516,Quadricopter_base,0.957670331001,0.000941574573517,-0.00140190485399,-0.207642257214,0.0779193490744,-0.00186600896996
1536240454385858878,20308,1536240454361654390,Quadricopter_base,0.925463557243,0.000882714986801,-0.00125288940035,-0.158410191536,0.0575490444899,-0.00234815105796
1536240454434581537,20309,1536240454409783800,Quadricopter_base,0.889774918556,0.000586628913879,-0.0035321789328,-0.186745464802,0.0720155537128,-0.00252723018639
1536240454482644524,20310,1536240454459440489,Quadricopter_base,0.849018216133,0.000323414773447,-0.00380277866498,-0.193644300103,0.0756984353065,-0.00233427877538
1536240454530082855,20311,1536240454506963703,Quadricopter_base,0.802941799164,0.000144600911881,-0.00668525369838,-0.15454877913,0.0598202347755,-0.00233821594156
1536240454577036655,20312,1536240454553195081,Quadricopter_base,0.752020299435,9.45925785345e-05,-0.00756025267765,-0.11666700989,0.0423342436552,-0.00204538041726
1536240454625529227,20313,1536240454600407015,Quadricopter_base,0.698246359825,6.86948715156e-06,-0.0108087100089,-0.102576985955,0.0388044044375,-0.00232700770721
1536240454689377196,20314,1536240454654414379,Quadricopter_base,0.641443133354,-0.00011026863649,-0.0118076764047,-0.105011060834,0.0407425016165,-0.00240150629543
1536240454743393628,20315,1536240454718376119,Quadricopter_base,0.582228660583,-0.000163495555171,-0.0151038169861,-0.106985114515,0.0425823703408,-0.00241762516089
1536240454802625905,20316,1536240454779083880,Quadricopter_base,0.519950985909,-0.00015963613987,-0.0161457024515,-0.115662172437,0.0437360554934,-0.00203071115538
1536240454851556366,20317,1536240454826971112,Quadricopter_base,0.454896092415,-0.000132247718284,-0.01951456815,-0.113152772188,0.0435391515493,-0.00205992115662
1536240454906508955,20318,1536240454879142060,Quadricopter_base,0.386269718409,-0.000119030359201,-0.0206780415028,-0.0991759821773,0.0367703810334,-0.00198726193048
1536240454962715861,20319,1536240454932608334,Quadricopter_base,0.315136194229,-1.94013591681e-05,-0.0241362992674,-0.0739399418235,0.0283052418381,-0.00208788923919
1536240455019666055,20320,1536240454993045243,Quadricopter_base,0.241060212255,0.000190861595911,-0.0252795256674,-0.0279242768884,0.00990472640842,-0.00202232622541
1536240455074325167,20321,1536240455050954319,Quadricopter_base,0.16582788527,0.000353790761437,-0.0284862499684,0.0334011428058,-0.012554327026,-0.00225534150377
1536240455130964994,20322,1536240455102488201,Quadricopter_base,0.0903009623289,0.000471657200251,-0.0289452075958,0.0976345688105,-0.037572208792,-0.00213846261613
1536240455179098896,20323,1536240455154650219,Quadricopter_base,0.0169637016952,0.000572165998165,-0.0309693813324,0.152660638094,-0.0568581707776,-0.00233560730703
1536240455244668683,20324,1536240455208120659,Quadricopter_base,-0.053308788687,0.000638930010609,-0.0297975540161,0.19892925024,-0.0745687782764,-0.00219004275277
1536240455308600614,20325,1536240455275164042,Quadricopter_base,-0.118491329253,0.000602904590778,-0.0299417972565,0.225884303451,-0.0840769633651,-0.00220339046791
1536240455368967358,20326,1536240455337101555,Quadricopter_base,-0.178390413523,0.000602923333645,-0.0268518924713,0.269182175398,-0.101094245911,-0.0019225969445
1536240455432148853,20327,1536240455405452058,Quadricopter_base,-0.231867045164,0.000550076365471,-0.0252079963684,0.32821893692,-0.124037012458,-0.00163289601915
1536240455486750977,20328,1536240455457483151,Quadricopter_base,-0.277025878429,0.000490285514388,-0.0203859787434,0.353331834078,-0.135527640581,-0.00148238986731
1536240455551704646,20329,1536240455519138099,Quadricopter_base,-0.31285354495,0.000482991308672,-0.0172102432698,0.357444852591,-0.135595142841,-0.00168043887243
1536240455615035063,20330,1536240455582297836,Quadricopter_base,-0.338894188404,0.000489205121994,-0.0113189211115,0.334360361099,-0.128394246101,-0.00187569158152
1536240455672960504,20331,1536240455641247927,Quadricopter_base,-0.35598307848,0.000570960342884,-0.0076329712756,0.325017005205,-0.12356941402,-0.00189718022011
1536240455738100593,20332,1536240455706076490,Quadricopter_base,-0.364474803209,0.000701874494553,-0.00178933143616,0.333502143621,-0.129218801856,-0.00184957112651
1536240455793138109,20333,1536240455769821720,Quadricopter_base,-0.364018976688,0.000877685844898,0.00144124042708,0.312127739191,-0.120867155492,-0.00207779975608
1536240455846292732,20334,1536240455821098194,Quadricopter_base,-0.354728996754,0.00107091665268,0.0064444555901,0.28214174509,-0.109296172857,-0.00214557675645
1536240455898861339,20335,1536240455875292188,Quadricopter_base,-0.337658137083,0.00118710845709,0.00852823350579,0.241600483656,-0.0929400920868,-0.00229167286307
1536240455955576305,20336,1536240455929532095,Quadricopter_base,-0.313260912895,0.00138168781996,0.0121819972992,0.177781715989,-0.0692518502474,-0.00234403088689
1536240456010700425,20337,1536240455985878764,Quadricopter_base,-0.283855885267,0.00151313096285,0.0129127502441,0.128359287977,-0.0487708225846,-0.00216740742326
1536240456072537947,20338,1536240456044523507,Quadricopter_base,-0.250568598509,0.00164335209411,0.0153648853302,0.106097340584,-0.0416949354112,-0.00215855333954
1536240456124261382,20339,1536240456100451501,Quadricopter_base,-0.214511036873,0.00179232656956,0.0150585183874,0.0869284421206,-0.0340957455337,-0.00216499925591
1536240456171773934,20340,1536240456148713931,Quadricopter_base,-0.175613358617,0.00188421085477,0.0165820121765,0.057867154479,-0.0237177349627,-0.00209715752862
1536240456229007921,20341,1536240456204384767,Quadricopter_base,-0.134920537472,0.00192544236779,0.0154674053192,0.0179095864296,-0.0069597940892,-0.00195903610438
1536240456279167781,20342,1536240456254217807,Quadricopter_base,-0.0930515229702,0.00199037976563,0.0163805484772,-0.0261992141604,0.00935018248856,-0.00193588621914
1536240456328172497,20343,1536240456303284081,Quadricopter_base,-0.0517111569643,0.0020036958158,0.0149118900299,-0.058885294944,0.0226146075875,-0.00176071492024
1536240456387970665,20344,1536240456363029340,Quadricopter_base,-0.0114581771195,0.00204124720767,0.0157105922699,-0.0800806432962,0.0292269662023,-0.00181843922473
1536240456444473478,20345,1536240456416411692,Quadricopter_base,0.0266694538295,0.00209292303771,0.0142776966095,-0.0955274403095,0.0361533761024,-0.00174478685949
1536240456494276728,20346,1536240456469570270,Quadricopter_base,0.0627841129899,0.00208026729524,0.0151801100001,-0.123019360006,0.0458866581321,-0.00172665063292
1536240456553968090,20347,1536240456523441270,Quadricopter_base,0.0959052965045,0.00205395929515,0.0138998031616,-0.152045369148,0.0586340390146,-0.00154309975915
1536240456615525361,20348,1536240456584203843,Quadricopter_base,0.125134557486,0.00211261585355,0.0150322914124,-0.157479628921,0.0599271655083,-0.00172590732109
1536240456671675073,20349,1536240456646976493,Quadricopter_base,0.150288790464,0.0020380616188,0.013986825943,-0.164896711707,0.0629574730992,-0.001803008141
1536240456724680647,20350,1536240456698951559,Quadricopter_base,0.171395003796,0.00202054530382,0.0152766704559,-0.188345313072,0.0714410990477,-0.00170318817254
1536240456788012589,20351,1536240456755217013,Quadricopter_base,0.187672972679,0.0019567348063,0.0143265724182,-0.194654405117,0.0758608728647,-0.00173316861037
1536240456847926278,20352,1536240456816371502,Quadricopter_base,0.198474764824,0.00187572091818,0.0156497955322,-0.176852419972,0.0679458454251,-0.00185040105134
1536240456907013464,20353,1536240456880384897,Quadricopter_base,0.204715073109,0.00184439867735,0.0146198272705,-0.170312166214,0.0656197816133,-0.0019511943683
1536240456961673108,20354,1536240456938498413,Quadricopter_base,0.206360056996,0.00168269127607,0.0157499313354,-0.174645066261,0.0670119449496,-0.00187068316154
1536240457018124718,20355,1536240456994493930,Quadricopter_base,0.203510627151,0.00155336409807,0.0144553184509,-0.165185660124,0.0649509578943,-0.00202593626454
1536240457067688594,20356,1536240457043868658,Quadricopter_base,0.195755884051,0.00146139413118,0.0152480602264,-0.139660209417,0.05405228585,-0.00211135111749
1536240457116925242,20357,1536240457099407000,Quadricopter_base,0.184242412448,0.00130071118474,0.013575553894,-0.111896783113,0.0437603145838,-0.00218549184501
1536240457168987549,20358,1536240457146088295,Quadricopter_base,0.169283226132,0.00121424347162,0.0139915952459,-0.0864905864,0.0331666842103,-0.00224245595746
1536240457230556612,20359,1536240457198147767,Quadricopter_base,0.151975631714,0.00111576169729,0.0119817266241,-0.0626761391759,0.0251577086747,-0.00226410781033
1536240457283417605,20360,1536240457259329276,Quadricopter_base,0.132634550333,0.000983349978924,0.0121331214905,-0.0481983795762,0.018660761416,-0.00224511628039
1536240457347985900,20361,1536240457313552470,Quadricopter_base,0.112145885825,0.00085286796093,0.00993013381958,-0.0399059429765,0.0164994765073,-0.0022844709456
1536240457412858733,20362,1536240457379155087,Quadricopter_base,0.0902628600597,0.000832911580801,0.00994086265564,-0.0253147669137,0.0100634098053,-0.0022104063537
1536240457480575601,20363,1536240457448512374,Quadricopter_base,0.0675817877054,0.000704707577825,0.00764250708744,-0.00413906341419,0.00258230371401,-0.00222799088806
1536240457531617640,20364,1536240457504764154,Quadricopter_base,0.0444444864988,0.000640360638499,0.00763297080994,0.0161475129426,-0.00619408674538,-0.00205197301693
1536240457579975153,20365,1536240457556158862,Quadricopter_base,0.0215590335429,0.000607650727034,0.0053882598877,0.0367459245026,-0.0130826309323,-0.00219013984315
1536240457640018296,20366,1536240457607887569,Quadricopter_base,-0.000607455207501,0.00056184141431,0.00550389289856,0.0508682839572,-0.0197011437267,-0.0020823343657
1536240457700902790,20367,1536240457676404731,Quadricopter_base,-0.0214634016156,0.000508009921759,0.00344395637512,0.0584401786327,-0.0217237062752,-0.00208138977177
1536240457757571016,20368,1536240457726521556,Quadricopter_base,-0.0409870892763,0.000495868735015,0.00376939750277,0.070998698473,-0.027288550511,-0.00206060381606
1536240457807930733,20369,1536240457782393332,Quadricopter_base,-0.0588318891823,0.000476399436593,0.00192880618852,0.0892215818167,-0.0335826128721,-0.00210467167199
1536240457861717967,20370,1536240457836248898,Quadricopter_base,-0.074529722333,0.000510754063725,0.00248074531555,0.0987718552351,-0.0385863743722,-0.0019565699622
1536240457912055477,20371,1536240457887370005,Quadricopter_base,-0.0874760523438,0.00046774931252,0.000873804092407,0.0943912118673,-0.0359616838396,-0.00200846022926
1536240457966332863,20372,1536240457937820695,Quadricopter_base,-0.0978922843933,0.000549349933863,0.00163793575484,0.0893260091543,-0.0346114113927,-0.00196163542569
1536240458015254111,20373,1536240457991026893,Quadricopter_base,-0.106081455946,0.000535752624273,0.000195503307623,0.0894003435969,-0.0339470244944,-0.00198920001276
1536240458074066339,20374,1536240458049147015,Quadricopter_base,-0.111800774932,0.000645868480206,0.00108599662781,0.0921637862921,-0.0362295582891,-0.00193137221504
1536240458134441762,20375,1536240458100467117,Quadricopter_base,-0.11517252028,0.000668834894896,-0.000258684158325,0.0892211124301,-0.0343950912356,-0.00197851378471
1536240458194794041,20376,1536240458169307418,Quadricopter_base,-0.116082288325,0.000732403248549,0.000700950564351,0.0869058221579,-0.0340727195144,-0.00192569335923
1536240458256504458,20377,1536240458223765931,Quadricopter_base,-0.114877566695,0.00078322738409,-0.000602006912231,0.0907358154655,-0.0347589626908,-0.00192897452507
1536240458322591536,20378,1536240458289050911,Quadricopter_base,-0.111122071743,0.000910278409719,0.000376701267669,0.0868707150221,-0.0345684178174,-0.00195729313418
1536240458386725314,20379,1536240458354225629,Quadricopter_base,-0.105036690831,0.000945623964071,-0.000931024609599,0.0769486427307,-0.0297125894576,-0.00196148082614
1536240458459061936,20380,1536240458425206659,Quadricopter_base,-0.0967264100909,0.00105304270983,2.26494958042e-05,0.0656928196549,-0.0262197200209,-0.00202392810024
1536240458521761986,20381,1536240458488652816,Quadricopter_base,-0.0866136923432,0.00110901333392,-0.00131607032381,0.0538146942854,-0.0206888876855,-0.00197926303372
1536240458585265540,20382,1536240458552590835,Quadricopter_base,-0.0748784542084,0.00120722874999,-0.000389814376831,0.0411912202835,-0.016812203452,-0.00194997736253
1536240458653911771,20383,1536240458619935576,Quadricopter_base,-0.0618829056621,0.00122629106045,-0.00174641620833,0.0269339028746,-0.0104167824611,-0.00201189238578
1536240458711698856,20384,1536240458682441052,Quadricopter_base,-0.0479977354407,0.00132929161191,-0.000816583691631,0.00949434842914,-0.00454968027771,-0.00197145133279
1536240458764548769,20385,1536240458738156996,Quadricopter_base,-0.0336878485978,0.00139619037509,-0.00215172767639,-0.00516149308532,0.00217465450987,-0.00185785174835
1536240458829427175,20386,1536240458799469829,Quadricopter_base,-0.0193463042378,0.00143715180457,-0.00117182731628,-0.0180086232722,0.00609933119267,-0.0018757856451
1536240458891062760,20387,1536240458862188829,Quadricopter_base,-0.00534843606874,0.00146928336471,-0.00243306159973,-0.0274258516729,0.0108570000157,-0.00191838468891
1536240458955393192,20388,1536240458923131119,Quadricopter_base,0.00805091205984,0.00151582574472,-0.00136375427246,-0.0377949103713,0.0139298588037,-0.0019156698836
1536240459011297991,20389,1536240458986420595,Quadricopter_base,0.0205644834787,0.00152551615611,-0.00252842903137,-0.0471865087748,0.0186083242297,-0.00186270358972
1536240459066077764,20390,1536240459041597946,Quadricopter_base,0.0318987891078,0.00156740657985,-0.00135898590088,-0.055773999542,0.0209280960262,-0.00187569460832
1536240459116372181,20391,1536240459092309151,Quadricopter_base,0.0418407320976,0.00155743770301,-0.00242710113525,-0.0581050999463,0.0229925774038,-0.00188609957695
1536240459173297175,20392,1536240459149342284,Quadricopter_base,0.0502103194594,0.00158836133778,-0.00116705906112,-0.056784208864,0.0214018672705,-0.00193696829956
1536240459228902103,20393,1536240459203548104,Quadricopter_base,0.0570778921247,0.00158463791013,-0.00215888023376,-0.053756326437,0.0212787762284,-0.00191845814697
1536240459277476848,20394,1536240459253196073,Quadricopter_base,0.0625284165144,0.00153840892017,-0.000849962234497,-0.055938180536,0.021105280146,-0.00200986582786
1536240459332828276,20395,1536240459308351275,Quadricopter_base,0.0666050314903,0.00154768116772,-0.00181078910828,-0.0604509785771,0.0240471735597,-0.00193549972028
1536240459389923961,20396,1536240459365064734,Quadricopter_base,0.0689850077033,0.00154653005302,-0.00048041343689,-0.056207858026,0.0215054564178,-0.00188070512377
1536240459450684088,20397,1536240459418191881,Quadricopter_base,0.0698769390583,0.00147359445691,-0.0014340877533,-0.0499722138047,0.0197323784232,-0.00198408123106
1536240459514727746,20398,1536240459481674070,Quadricopter_base,0.0693771839142,0.00144807621837,-0.00011563305452,-0.0503996014595,0.0190539360046,-0.00202207663096
1536240459574724644,20399,1536240459543141747,Quadricopter_base,0.0676449015737,0.00142944604158,-0.00109195709229,-0.0510592572391,0.0205673724413,-0.00199802871794
1536240459633989834,20400,1536240459602242264,Quadricopter_base,0.0644670724869,0.00133359804749,0.000200271606445,-0.049725767225,0.0191381722689,-0.00196331902407
1536240459692852537,20401,1536240459662075367,Quadricopter_base,0.0599685646594,0.00131213851273,-0.000815391424112,-0.0424420908093,0.0172656103969,-0.0020424569957
1536240459752403854,20402,1536240459719867618,Quadricopter_base,0.0541842654347,0.00127578526735,0.000430345535278,-0.0320586003363,0.0121008269489,-0.00199680170044
1536240459813642791,20403,1536240459788589241,Quadricopter_base,0.0474045649171,0.00121558271348,-0.000629425107036,-0.021929256618,0.00908148661256,-0.00202216999605
1536240459864782036,20404,1536240459840915590,Quadricopter_base,0.0400193557143,0.00118242297322,0.000576972903218,-0.014710796997,0.00539392977953,-0.00209505762905
1536240459913425504,20405,1536240459889750464,Quadricopter_base,0.0321593023837,0.00110423844308,-0.000512599945068,-0.00791445933282,0.0038432716392,-0.00207736482844
1536240459968028617,20406,1536240459942815781,Quadricopter_base,0.0239701606333,0.00107929762453,0.00066876411438,-0.000732430489734,-2.31162630371e-05,-0.00198873900808
1536240460018827714,20407,1536240459995248816,Quadricopter_base,0.0156852975488,0.00103561393917,-0.000436305970652,0.00711405277252,-0.00218194304034,-0.00211329222657
1536240460072963172,20408,1536240460048114340,Quadricopter_base,0.00749616231769,0.00100736808963,0.000734329223633,0.0128053743392,-0.00531316315755,-0.0019934840966
1536240460128424580,20409,1536240460103664214,Quadricopter_base,-0.000353091571014,0.000947416818235,-0.000373125076294,0.0176088456064,-0.00616336241364,-0.00198538438417
1536240460189622353,20410,1536240460153923089,Quadricopter_base,-0.00786196254194,0.000958583317697,0.00079870223999,0.0214575584978,-0.00865242630243,-0.00196230970323
1536240460251217394,20411,1536240460218930526,Quadricopter_base,-0.0147653017193,0.000940490048379,-0.000302791624563,0.0264557916671,-0.00969120487571,-0.0020423324313
1536240460312723728,20412,1536240460284511558,Quadricopter_base,-0.0211658086628,0.000893830321729,0.000873804092407,0.0313603617251,-0.0126140527427,-0.00199941988103
1536240460361283390,20413,1536240460336531646,Quadricopter_base,-0.0267161335796,0.000873885117471,-0.000221729278564,0.036208409816,-0.0135699389502,-0.00200259871781
1536240460418431479,20414,1536240460393017925,Quadricopter_base,-0.031345307827,0.000908905640244,0.000964403152466,0.0378195978701,-0.0151970703155,-0.00204010028392
1536240460475307525,20415,1536240460448822256,Quadricopter_base,-0.0349015966058,0.000874761492014,-0.000128746032715,0.034767895937,-0.0130063984543,-0.00198997161351
1536240460532089290,20416,1536240460507375107,Quadricopter_base,-0.0375614985824,0.000907024368644,0.00105500221252,0.0318884477019,-0.0127616841346,-0.00199709413573
1536240460588471342,20417,1536240460563215107,Quadricopter_base,-0.0394034162164,0.000892971642315,-4.41074334958e-05,0.0332356542349,-0.0124385524541,-0.00199658167548
1536240460643962237,20418,1536240460618420003,Quadricopter_base,-0.0403489619493,0.000945888459682,0.00112891197205,0.0336078852415,-0.0137264039367,-0.00198741653003
1536240460701078721,20419,1536240460674903710,Quadricopter_base,-0.0403775162995,0.00091007258743,1.43051065606e-05,0.0324487835169,-0.0122892912477,-0.00200460292399
1536240460757450360,20420,1536240460732335341,Quadricopter_base,-0.0395484939218,0.000988058745861,0.00117540359497,0.028756339103,-0.0117537239566,-0.00196161167696
1536240460804721974,20421,1536240460787377657,Quadricopter_base,-0.0379121899605,0.000995877198875,3.81469908461e-05,0.0256492774934,-0.00952919945121,-0.00200721458532
1536240460857848013,20422,1536240460833584553,Quadricopter_base,-0.0355391725898,0.00100864376873,0.00117897987366,0.0221220422536,-0.00921549834311,-0.00192594411783
1536240460906809846,20423,1536240460882808774,Quadricopter_base,-0.0325816497207,0.0010480787605,2.86102313112e-05,0.0168606415391,-0.00618748553097,-0.00196767877787
1536240460958927560,20424,1536240460934487346,Quadricopter_base,-0.02900082618,0.00106833782047,0.00114917755127,0.0114091020077,-0.00494326464832,-0.00192575098481
1536240461005751735,20425,1536240460982376273,Quadricopter_base,-0.0251931771636,0.00113803613931,-1.54972112796e-05,0.00876845605671,-0.00298386719078,-0.00196683662944
1536240461062165206,20426,1536240461038442774,Quadricopter_base,-0.0210492964834,0.00113655766472,0.00109076499939,0.00574568798766,-0.00288620311767,-0.00198883679695
1536240461115652013,20427,1536240461089264449,Quadricopter_base,-0.0168097279966,0.00115323625505,-8.46385883051e-05,0.00289364811033,-0.000802985741757,-0.00205175252631
1536240461168627657,20428,1536240461145251265,Quadricopter_base,-0.0123433405533,0.00121973501518,0.00101923942566,-0.000737113063224,-0.000267122581135,-0.00198498321697
1536240461216673049,20429,1536240461193095680,Quadricopter_base,-0.00790904834867,0.00121286162175,-0.000160932540894,-0.00355283496901,0.00181429192889,-0.00189826765563
1536240461265439642,20430,1536240461242516933,Quadricopter_base,-0.00355608342215,0.00125663657673,0.000940561294556,-0.00702896574512,0.0021147527732,-0.00195338949561
1536240461321169700,20431,1536240461295890343,Quadricopter_base,0.000676428549923,0.00129450950772,-0.000234842300415,-0.00918696448207,0.00402076821774,-0.00197333423421
1536240461373201544,20432,1536240461350374498,Quadricopter_base,0.00467509310693,0.00130194309168,0.00086784362793,-0.0113664492965,0.00387190142646,-0.00190826249309
1536240461425333025,20433,1536240461402115240,Quadricopter_base,0.00842583365738,0.00131432176568,-0.00030517578125,-0.0136228883639,0.00566160771996,-0.00192664319184
1536240461476773744,20434,1536240461450907604,Quadricopter_base,0.0118082109839,0.00132478936575,0.000805854797363,-0.0163559969515,0.0057890615426,-0.00195129762869
1536240461531584235,20435,1536240461506606155,Quadricopter_base,0.0148399425671,0.00134030729532,-0.000358819961548,-0.0172974225134,0.00722025614232,-0.00200537987985
1536240461586370905,20436,1536240461562495204,Quadricopter_base,0.017340393737,0.00135045638308,0.000756978988647,-0.0179561749101,0.0065033743158,-0.00192797230557
1536240461641376947,20437,1536240461615486981,Quadricopter_base,0.0194617919624,0.00133359665051,-0.000404119491577,-0.0182333514094,0.0075441757217,-0.00198679999448
1536240461706425592,20438,1536240461671706581,Quadricopter_base,0.0210696365684,0.00131816696376,0.000715255737305,-0.0194891411811,0.00710109528154,-0.00196803873405
1536240461769253596,20439,1536240461736302715,Quadricopter_base,0.0221498087049,0.00133947143331,-0.000439882278442,-0.0192981082946,0.00808517169207,-0.00197631842457
1536240461836171826,20440,1536240461802680174,Quadricopter_base,0.022737564519,0.00130868237466,0.000686645507812,-0.0202732570469,0.00749293481931,-0.00193523522466
1536240461900883018,20441,1536240461868614225,Quadricopter_base,0.0228047035635,0.00129665108398,-0.000472068786621,-0.0201389081776,0.00843927636743,-0.00198746961541
1536240461965017300,20442,1536240461933249762,Quadricopter_base,0.0223371163011,0.0013385610655,0.00065803527832,-0.0195660032332,0.00722726900131,-0.00194192759227
1536240462026128028,20443,1536240461993548026,Quadricopter_base,0.0212955828756,0.00127505371347,-0.000500679016113,-0.0172076746821,0.00726940017194,-0.00200477126054
1536240462086882977,20444,1536240462060279428,Quadricopter_base,0.0197865795344,0.00125101814047,0.000627040863037,-0.0144082512707,0.00518396962434,-0.00207975343801
1536240462144367694,20445,1536240462120066078,Quadricopter_base,0.0178844537586,0.0012341751717,-0.000532865524292,-0.01066214405,0.0047194249928,-0.00198582978919
1536240462195408799,20446,1536240462170921230,Quadricopter_base,0.0156069109216,0.00123155629262,0.000590085983276,-0.0077765090391,0.00260696606711,-0.00195596623234
1536240462244485901,20447,1536240462219077986,Quadricopter_base,0.0131203532219,0.00118624069728,-0.00056266784668,-0.00455539766699,0.00235327612609,-0.0019696187228
1536240462297002407,20448,1536240462272815779,Quadricopter_base,0.0104744629934,0.00117954355665,0.000559091567993,-0.00204333337024,0.000335221731802,-0.00194371095859
1536240462346580893,20449,1536240462321999660,Quadricopter_base,0.00775770377368,0.00114409660455,-0.000594854354858,0.000785410520621,0.000240725843469,-0.00202183821239
1536240462399521907,20450,1536240462375022759,Quadricopter_base,0.00504453340545,0.00115058314987,0.000532865524292,0.00234377593733,-0.00133335369173,-0.00194836896844
1536240462454432513,20451,1536240462431385568,Quadricopter_base,0.00234549795277,0.00112112285569,-0.000622272491455,0.00416428456083,-0.00106301205233,-0.00206118775532
1536240462514611915,20452,1536240462489597706,Quadricopter_base,-0.000250813900493,0.00109104381409,0.000510215759277,0.005391292274,-0.00254103820771,-0.00196271552704
1536240462570128523,20453,1536240462545880437,Quadricopter_base,-0.00271605653688,0.00109225686174,-0.000636577606201,0.00748056871817,-0.00243042339571,-0.00200229487382
1536240462627054567,20454,1536240462600705887,Quadricopter_base,-0.00505379587412,0.00108230288606,0.000499486923218,0.00904993992299,-0.0039927479811,-0.00197784556076
1536240462683781711,20455,1536240462657904130,Quadricopter_base,-0.00711881648749,0.00105760921724,-0.000647306442261,0.0106244552881,-0.00361979729496,-0.00204241229221
1536240462734090989,20456,1536240462708623772,Quadricopter_base,-0.00890756212175,0.00106079108082,0.00049352645874,0.010891424492,-0.0047277007252,-0.00199977867305
1536240462789636877,20457,1536240462764879055,Quadricopter_base,-0.0104235839099,0.00104941846803,-0.00064492225647,0.011700021103,-0.00408416101709,-0.0019962140359
1536240462841831840,20458,1536240462817157139,Quadricopter_base,-0.0116279190406,0.00108024803922,0.000499486923218,0.010884180665,-0.00484129553661,-0.00199750601314
1536240462896592555,20459,1536240462873977374,Quadricopter_base,-0.0125630768016,0.00105420453474,-0.000637769699097,0.0109557351097,-0.0038452311419,-0.00197954894975
1536240462947131478,20460,1536240462924140040,Quadricopter_base,-0.0131617514417,0.00105994520709,0.0005042552948,0.0107141807675,-0.00473022367805,-0.00194665323943
1536240462999013967,20461,1536240462970026826,Quadricopter_base,-0.0135833341628,0.00103368377313,-0.000630617141724,0.0109163774177,-0.00378385139629,-0.00203774333932
1536240463049213142,20462,1536240463022963449,Quadricopter_base,-0.0135374069214,0.00107135204598,0.000516176223755,0.00973134208471,-0.00434465752915,-0.00192359543871
