%time,field.header.seq,field.header.stamp,field.header.frame_id,field.twist.linear.x,field.twist.linear.y,field.twist.linear.z,field.twist.angular.x,field.twist.angular.y,field.twist.angular.z
1536679193971810551,3263,1536679193961343482,Quadricopter_base,0.041727270931,0.059151597321,-0.00298380851746,-0.0221573654562,0.0722830072045,-0.00657588150352
1536679194018276804,3264,1536679194007570775,Quadricopter_base,0.0412268638611,0.0505790263414,-0.00211119651794,-0.0738109573722,-0.0141665413976,-0.0109504275024
1536679194064743499,3265,1536679194055032018,Quadricopter_base,0.0400832854211,0.0461632907391,-0.00881791114807,0.113916993141,-0.113974019885,-0.00871973484755
1536679194114024274,3266,1536679194103737922,Quadricopter_base,0.0368049181998,0.0386231914163,-0.004962682724,0.197523385286,-0.107957862318,-0.0007644968573
1536679194160162613,3267,1536679194149452279,Quadricopter_base,0.0328592099249,0.0234563685954,-0.00738024711609,0.00399073585868,-0.0368568748236,-0.000745098106563
1536679194209417311,3268,1536679194199003319,Quadricopter_base,0.0277598686516,0.00662750098854,-0.00845551490784,-0.0880608335137,0.0253099910915,-0.00479578552768
1536679194262901394,3269,1536679194252848988,Quadricopter_base,0.0222361795604,-0.00708818808198,-0.00444769859314,-0.00569951441139,0.0169893726707,-0.00180853717029
1536679194308928818,3270,1536679194298895700,Quadricopter_base,0.0164401996881,-0.0201263017952,-0.00425457954407,0.0435666181147,0.0586959794164,0.0070070871152
1536679194361693112,3271,1536679194351455789,Quadricopter_base,0.0123336296529,-0.0334338881075,-0.0113081932068,0.0526604056358,0.0626449435949,0.00673277396709
1536679194410552476,3272,1536679194400396605,Quadricopter_base,0.0115113202482,-0.0470634140074,-0.0131642818451,0.0471970625222,-0.0613334923983,0.000357510318281
1536679194459685673,3273,1536679194449538157,Quadricopter_base,0.0107133928686,-0.0628970786929,-0.0187087059021,-0.0481423810124,-0.126075312495,-0.0051646232605
1536679194508879091,3274,1536679194498982754,Quadricopter_base,0.00547265075147,-0.0804203227162,-0.0210165977478,-0.147157952189,0.00790651049465,-0.00709411641583
1536679194554723608,3275,1536679194544623421,Quadricopter_base,-0.00178024172783,-0.0943329185247,-0.0230193138123,-0.101165577769,0.0885479003191,-0.00859063863754
1536679194602757614,3276,1536679194592591629,Quadricopter_base,-0.00820427015424,-0.104566186666,-0.00846028327942,-0.025770097971,0.0784274563193,-0.00823816657066
1536679194647182765,3277,1536679194636728018,Quadricopter_base,-0.0128058902919,-0.114025726914,-0.00247240089811,-0.0761081278324,0.079215452075,-0.00684799253941
1536679194703269212,3278,1536679194693247115,Quadricopter_base,-0.0162802487612,-0.12194416672,0.00261902809143,-0.155978500843,0.117783926427,-0.00239176559262
1536679194778644358,3279,1536679194768230641,Quadricopter_base,-0.0183234252036,-0.124609611928,0.0150990486145,-0.099889755249,0.0817488133907,0.00102947442792
1536679194826166917,3280,1536679194814792389,Quadricopter_base,-0.018425270915,-0.12291289866,0.0253593921661,-0.0287896934897,-0.0238735936582,-0.0020569502376
1536679194896807297,3281,1536679194886540186,Quadricopter_base,-0.0188578180969,-0.121270798147,0.0282502174377,-0.0819155275822,-0.046860281378,-0.00650051422417
1536679194944351922,3282,1536679194934051155,Quadricopter_base,-0.0218627378345,-0.119518145919,0.022314786911,-0.165999218822,0.0591806769371,-0.00883189961314
1536679194994591260,3283,1536679194984505914,Quadricopter_base,-0.0266456902027,-0.113347001374,0.0126421451569,-0.0970936194062,0.195184364915,-0.00908732507378
1536679195043537871,3284,1536679195032862087,Quadricopter_base,-0.027848277241,-0.101281695068,0.0157821178436,0.0494159758091,0.151361912489,-0.0107932109386
1536679195092572625,3285,1536679195081647889,Quadricopter_base,-0.0237003974617,-0.0893781110644,0.0211274623871,-0.0233192443848,0.0397515594959,-0.00967996008694
1536679195127053523,3286,1536679195119001602,Quadricopter_base,-0.0173329915851,-0.0769239068031,0.024688243866,-0.0985650867224,-0.0738960802555,-0.00442496081814
1536679195160036423,3287,1536679195151926912,Quadricopter_base,-0.0136900506914,-0.063080124557,0.0193679332733,-0.0934996604919,-0.0722597688437,-0.00130027998239
1536679195202536618,3288,1536679195191600983,Quadricopter_base,-0.0144864814356,-0.0483271628618,0.0125873088837,-0.076940536499,0.101202219725,-0.0062794201076
1536679195251708466,3289,1536679195240900109,Quadricopter_base,-0.0137688973919,-0.03115189448,0.00768065452576,-0.0897109657526,0.127496242523,-0.00807962752879
1536679195302051748,3290,1536679195291470240,Quadricopter_base,-0.00956080108881,-0.00884612556547,0.0113868713379,-0.00556561350822,-0.0210082549602,0.00266673509032
1536679195360451557,3291,1536679195350262165,Quadricopter_base,-0.0059986258857,0.0150387641042,0.00990152359009,0.156367391348,-0.0807657986879,0.0116515271366
1536679195444880407,3292,1536679195434999471,Quadricopter_base,-0.00342024397105,0.035455211997,0.00966429710388,0.249271988869,-0.0715711787343,0.0126169165596
1536679195489339789,3293,1536679195478686608,Quadricopter_base,0.000187043100595,0.049315687269,0.0101244449615,0.205354854465,-0.0969319939613,0.0116014406085
1536679195537468213,3294,1536679195527251576,Quadricopter_base,0.00293610244989,0.0564162097871,0.00731229782104,0.127011105418,-0.0330193340778,0.00921912211925
1536679195586897990,3295,1536679195575924970,Quadricopter_base,0.00551351159811,0.0589051693678,0.00438928604126,0.0203380249441,0.0559410490096,0.00894068833441
1536679195666264562,3296,1536679195655748956,Quadricopter_base,0.00925311632454,0.0612358227372,0.00682234764099,0.0114900665358,0.0925198495388,0.00566026289016
1536679195730029150,3297,1536679195719277631,Quadricopter_base,0.0162601713091,0.0650836676359,0.0054657459259,0.0550023652613,-0.0242686122656,0.0028056721203
1536679195782617040,3298,1536679195771719853,Quadricopter_base,0.0241037551314,0.0690306723118,0.00764131546021,0.158031463623,-0.147451773286,0.00321062188596
1536679195839481880,3299,1536679195828932960,Quadricopter_base,0.0297834910452,0.0679941698909,0.00775933265686,0.15507465601,-0.13878762722,-0.000995131093077
1536679195889048313,3300,1536679195878218030,Quadricopter_base,0.0333665534854,0.0601716935635,0.00511169433594,0.000644690648187,-0.06101853773,-0.00218296982348
1536679195934836890,3301,1536679195924160619,Quadricopter_base,0.0355240628123,0.0514447614551,0.0011193753453,-0.0386882759631,-0.0415857695043,-0.00400260277092
1536679195986699345,3302,1536679195976242583,Quadricopter_base,0.0359713695943,0.0432234779,0.00579357147217,-0.0195868909359,-0.0107745779678,-0.006355245132
1536679196032166878,3303,1536679196023625329,Quadricopter_base,0.0352390632033,0.0342105403543,0.00557661056519,-0.0931210145354,0.0917607992887,-0.00518738571554
1536679196073596780,3304,1536679196065906017,Quadricopter_base,0.0356660708785,0.0286629609764,0.00614404678345,-0.0488947890699,0.0921019911766,-0.00506616896018
1536679196117436613,3305,1536679196109397349,Quadricopter_base,0.0385075472295,0.0270861163735,0.000511407852173,0.0960491970181,-0.0346485637128,-0.00312937796116
1536679196170854418,3306,1536679196161149209,Quadricopter_base,0.0421589948237,0.0219955556095,-0.00601291656494,-0.000972253619693,-0.070941016078,-3.61832571798e-05
1536679196212106064,3307,1536679196201179015,Quadricopter_base,0.0446622185409,0.0153556186706,-0.0156819820404,-0.105952508748,-0.0785776227713,-0.00243832427077
1536679196257123280,3308,1536679196246786847,Quadricopter_base,0.0441731549799,0.0122669832781,-0.016542673111,0.0455937385559,-0.115813374519,-0.00362639175728
1536679196301941923,3309,1536679196291641633,Quadricopter_base,0.0412803739309,0.00681738462299,-0.0139856338501,0.0374700240791,-0.092523381114,-0.00602211151272
1536679196353493061,3310,1536679196343195570,Quadricopter_base,0.0368667282164,-0.00129238888621,-0.0159442424774,-0.05430367589,-0.0823067054152,-0.0111348833889
1536679196403585907,3311,1536679196393493749,Quadricopter_base,0.0291111823171,-0.00828282348812,-0.0160241127014,0.0192088186741,-0.0195136144757,-0.014193078503
1536679196448744286,3312,1536679196438633668,Quadricopter_base,0.0192625112832,-0.0166224762797,-0.00934600830078,0.024565409869,0.139283373952,-0.0126488832757
1536679196488791636,3313,1536679196478740158,Quadricopter_base,0.0119474586099,-0.0252544991672,-0.00953793525696,-0.0251011252403,0.25152772665,-0.00566759612411
1536679196528162801,3314,1536679196518264333,Quadricopter_base,0.0115972263739,-0.0309071093798,-0.00985741615295,-0.0509382411838,0.143468290567,-0.00251662544906
1536679196566994367,3315,1536679196557098356,Quadricopter_base,0.0166506450623,-0.0337023846805,-0.0116491317749,-0.0997094959021,-0.0892606750131,-0.00442511355504
1536679196613959469,3316,1536679196603806688,Quadricopter_base,0.0190286338329,-0.0343214012682,-0.00486254692078,-0.0618563368917,-0.134392589331,-0.00447832047939
1536679196661827527,3317,1536679196651634828,Quadricopter_base,0.0159910321236,-0.0341202542186,-0.00037670135498,0.0487029403448,-0.00736610218883,0.00285911047831
1536679196708143217,3318,1536679196697597190,Quadricopter_base,0.0124602308497,-0.035593662411,0.0147128105164,0.0453465133905,0.0579675808549,0.00759389344603
1536679196756709937,3319,1536679196746513961,Quadricopter_base,0.0107259554788,-0.0391405448318,0.0208425521851,-0.088883779943,0.106636926532,0.00446888245642
1536679196802529051,3320,1536679196793075992,Quadricopter_base,0.011831920594,-0.0389901660383,0.0208747386932,-0.078556984663,0.00508874561638,-0.00229431362823
1536679196853124399,3321,1536679196842640758,Quadricopter_base,0.0174877624959,-0.0349150784314,0.0172483921051,-0.0652600303292,-0.48026534915,-0.00431033270434
1536679196897998375,3322,1536679196887483288,Quadricopter_base,0.0161923840642,-0.0338964909315,0.0119566917419,-0.2425327003,-0.86834859848,-0.00919409375638
1536679196946645686,3323,1536679196936525367,Quadricopter_base,-0.00802190229297,-0.0366227701306,0.0167298316956,-0.363568514585,-0.771684885025,-0.01930802688
1536679196981590997,3324,1536679196973809587,Quadricopter_base,-0.0567588508129,-0.0368224717677,0.0211846828461,-0.172436952591,-0.536437034607,-0.000463374832179
1536679197014327725,3325,1536679197006683735,Quadricopter_base,-0.120089307427,-0.0373411998153,0.0099456300959,-0.0380355715752,-0.331166654825,0.00629788544029
1536679197046855702,3326,1536679197039212200,Quadricopter_base,-0.19322925806,-0.0408661589026,0.000911948678549,-0.0531523711979,-0.190917521715,-0.00813579838723
1536679197080994754,3327,1536679197072963839,Quadricopter_base,-0.27031865716,-0.0454725287855,-0.00993609987199,-0.104116767645,-0.200892448425,-0.0165936723351
1536679197117848103,3328,1536679197110325699,Quadricopter_base,-0.352727353573,-0.0495848357677,-0.0162398815155,-0.130996137857,-0.298712730408,-0.012051592581
1536679197153037671,3329,1536679197145751254,Quadricopter_base,-0.445272475481,-0.0523443892598,-0.0208413656801,-0.0155103486031,-0.183374151587,0.00474247243255
1536679197187950614,3330,1536679197180800037,Quadricopter_base,-0.545537650585,-0.0554026067257,-0.0218749027699,0.102060675621,-0.0102646565065,0.0167015045881
1536679197220583570,3331,1536679197213151483,Quadricopter_base,-0.648097515106,-0.0607982873917,-0.0239443778992,0.176553800702,0.261984348297,0.00965443067253
1536679197261178215,3332,1536679197253577438,Quadricopter_base,-0.745822310448,-0.0708611309528,-0.0229489766061,0.0983321368694,0.533026337624,-0.0300489589572
1536679197294248515,3333,1536679197286694941,Quadricopter_base,-0.830494880676,-0.0787894427776,-0.0227177217603,0.093287602067,0.580510616302,-0.0382838286459
1536679197337463777,3334,1536679197327083826,Quadricopter_base,-0.900951862335,-0.0821177661419,-0.0258123874664,0.190986931324,0.623633682728,-0.0257253814489
1536679197382520305,3335,1536679197372078063,Quadricopter_base,-0.955757379532,-0.0846016407013,-0.0233983900398,0.17207762599,0.614344835281,-0.0222603566945
1536679197434105593,3336,1536679197423982413,Quadricopter_base,-0.994470953941,-0.0858882367611,-0.0269913673401,0.145747572184,0.631487309933,-0.018117107451
1536679197481333159,3337,1536679197471074938,Quadricopter_base,-1.01793193817,-0.0835873484612,-0.0301861763,0.257066428661,0.642913520336,-0.0115650184453
1536679197524142569,3338,1536679197513984556,Quadricopter_base,-1.02528917789,-0.0816944539547,-0.0177407264709,0.258534222841,0.705123782158,-0.00348738348112
1536679197568949698,3339,1536679197559232025,Quadricopter_base,-1.01426672935,-0.0810807943344,-0.00953435990959,0.150915801525,0.751911044121,0.00062048737891
1536679197615661126,3340,1536679197607875802,Quadricopter_base,-0.982341587543,-0.0775518119335,-0.00777125731111,0.0395958721638,0.600863337517,0.0047324532643
1536679197653885468,3341,1536679197645652549,Quadricopter_base,-0.934956908226,-0.0688868463039,-0.00482439482585,0.0523204877973,0.473510682583,0.000979301519692
1536679197695823158,3342,1536679197687494317,Quadricopter_base,-0.876145124435,-0.0566781908274,0.00218988093548,0.156279936433,0.490483492613,-0.0136438626796
1536679197740742429,3343,1536679197730817403,Quadricopter_base,-0.803925156593,-0.0435028374195,0.00269888644107,0.114399090409,0.36458876729,-0.00990448147058
1536679197786045965,3344,1536679197776148186,Quadricopter_base,-0.718658030033,-0.0289226025343,0.00356792658567,-0.00503549352288,0.110370285809,0.00253806007095
1536679197835948500,3345,1536679197825073113,Quadricopter_base,-0.63217407465,-0.0135866701603,-0.000840423803311,-0.0390190854669,0.139623492956,0.0116969645023
1536679197881668334,3346,1536679197870754521,Quadricopter_base,-0.543545722961,0.00431244075298,0.000190737846424,0.0909598022699,0.258142709732,-0.00848976150155
1536679197930317280,3347,1536679197918831526,Quadricopter_base,-0.448255687952,0.0230573415756,0.00112891080789,0.160652339458,0.244163453579,-0.0214597377926
1536679197985347438,3348,1536679197974480786,Quadricopter_base,-0.344133645296,0.0397719293833,-0.00469804229215,-0.032157510519,0.069849036634,0.0177084114403
1536679198034179662,3349,1536679198023809723,Quadricopter_base,-0.237316817045,0.0567849874496,-0.016161205247,-0.219726145267,-0.0898184925318,0.0536622926593
1536679198081613534,3350,1536679198070979536,Quadricopter_base,-0.132506966591,0.0790914744139,-0.0218665599823,-0.149824142456,-0.208737552166,0.0285836029798
1536679198134855320,3351,1536679198124468874,Quadricopter_base,-0.0344582274556,0.104816801846,-0.0290477275848,0.0364841781557,-0.274929255247,-0.0209039840847
1536679198188077031,3352,1536679198177538630,Quadricopter_base,0.0521260425448,0.128526434302,-0.0319528579712,0.290558427572,0.141509458423,-0.0633641108871
1536679198240833354,3353,1536679198230287424,Quadricopter_base,0.139217108488,0.14786273241,-0.0334906615317,0.489361912012,0.566215455532,-0.087246119976
1536679198293542406,3354,1536679198283095365,Quadricopter_base,0.244656801224,0.160209149122,-0.0425100326538,0.357283949852,0.476381421089,-0.0449754446745
1536679198342534592,3355,1536679198332135371,Quadricopter_base,0.366403520107,0.167426630855,-0.0615251101553,0.160901769996,0.197527423501,0.00291343196295
1536679198391687965,3356,1536679198381246246,Quadricopter_base,0.499546378851,0.171787887812,-0.0751102119684,0.0270533896983,-0.0561713203788,0.0219102986157
1536679198435566687,3357,1536679198426085665,Quadricopter_base,0.633058428764,0.173955202103,-0.0895750448108,-0.05912854895,-0.174115747213,0.0291005112231
1536679198484561530,3358,1536679198474855615,Quadricopter_base,0.762437462807,0.175531104207,-0.102589137852,-0.0745323449373,-0.196687072515,0.0257087275386
1536679198530496578,3359,1536679198520200169,Quadricopter_base,0.888290584087,0.176224142313,-0.107511274517,-0.0977281555533,-0.158942699432,0.0302072763443
1536679198574401183,3360,1536679198564100196,Quadricopter_base,1.01125383377,0.179459482431,-0.104202032089,-0.0340975113213,-0.190718114376,0.00503555918112
1536679198618447750,3361,1536679198608042214,Quadricopter_base,1.12775325775,0.184308990836,-0.109903819859,0.0502622798085,-0.291854739189,-0.0274425558746
1536679198659051135,3362,1536679198648825590,Quadricopter_base,1.24012982845,0.184579253197,-0.107699602842,0.0166272819042,-0.344304084778,-0.0258178375661
1536679198704776935,3363,1536679198694548978,Quadricopter_base,1.34796822071,0.180282205343,-0.0996434763074,-0.0426915362477,-0.502683997154,-0.0252139642835
1536679198746111247,3364,1536679198735976246,Quadricopter_base,1.44502151012,0.172591567039,-0.0829684734344,-0.00208272784948,-0.556580960751,-0.0293876137584
1536679198786851285,3365,1536679198776868061,Quadricopter_base,1.5280559063,0.158237367868,-0.067588083446,-0.0422776676714,-0.479089170694,-0.014590183273
1536679198835603794,3366,1536679198825420953,Quadricopter_base,1.59796929359,0.138007730246,-0.0579607412219,-0.139164865017,-0.426946938038,0.00357775017619
1536679198881199717,3367,1536679198871028834,Quadricopter_base,1.65591228008,0.118797063828,-0.0487506389618,-0.0482272803783,-0.410280793905,-0.00223182979971
1536679198934036972,3368,1536679198924025473,Quadricopter_base,1.70532023907,0.0978620052338,-0.030300617218,-0.00831544212997,-0.514194071293,-0.0143322991207
1536679198978380003,3369,1536679198968126721,Quadricopter_base,1.74196004868,0.0707656145096,-0.0187659244984,-0.114835098386,-0.45344260335,-0.00307809561491
1536679199028058087,3370,1536679199017946773,Quadricopter_base,1.76556503773,0.0399709939957,-0.00130295718554,-0.225015282631,-0.307852089405,0.00866362452507
1536679199074417785,3371,1536679199065751856,Quadricopter_base,1.77952480316,0.0120724439621,0.0183212757111,-0.207851499319,-0.25547555089,0.00937109999359
1536679199125549846,3372,1536679199116089703,Quadricopter_base,1.78408288956,-0.0121898651123,0.0297605991364,-0.175908207893,-0.162595152855,0.00917083118111
1536679199172839645,3373,1536679199162372005,Quadricopter_base,1.7836265564,-0.0325679779053,0.0390076674521,-0.13751205802,-0.20565392077,0.00295110559091
1536679199222634743,3374,1536679199209883991,Quadricopter_base,1.77856349945,-0.0502961277962,0.0530684031546,-0.106558538973,-0.361500352621,-0.00452517578378
1536679199272112663,3375,1536679199262290431,Quadricopter_base,1.76431870461,-0.0695306062698,0.0600016191602,-0.26451420784,-0.295436948538,-0.0121374167502
1536679199318034665,3376,1536679199310509337,Quadricopter_base,1.738702178,-0.0866801142693,0.0707578584552,-0.355857044458,-0.0993747711182,-0.0118009829894
1536679199371696891,3377,1536679199361471299,Quadricopter_base,1.70645666122,-0.0962032079697,0.0766789987683,-0.196083158255,-0.0102843996137,0.00198161974549
1536679199424892457,3378,1536679199414314577,Quadricopter_base,1.67145490646,-0.0996145009995,0.0866341665387,0.0358840674162,-0.0682887583971,0.0173059869558
1536679199476627788,3379,1536679199467129381,Quadricopter_base,1.63562870026,-0.103855729103,0.0920164659619,0.0600006058812,-0.0784987509251,0.0138192055747
1536679199531145613,3380,1536679199520956859,Quadricopter_base,1.59855246544,-0.110293447971,0.100557796657,-0.0333088152111,-0.0698828622699,0.000679683871567
1536679199575966167,3381,1536679199564563761,Quadricopter_base,1.56024384499,-0.116311192513,0.108344547451,-0.105856955051,-0.0910274982452,-0.00999522581697
1536679199620802448,3382,1536679199610469779,Quadricopter_base,1.5204308033,-0.120533227921,0.109332792461,-0.19266295433,-0.151471957564,-0.0182511806488
1536679199668903635,3383,1536679199658492203,Quadricopter_base,1.47731328011,-0.121894270182,0.0932157114148,-0.249464511871,-0.145172417164,-0.0225842818618
1536679199702908370,3384,1536679199695277913,Quadricopter_base,1.42654466629,-0.11904245615,0.0802051946521,-0.0925625935197,-0.0626837834716,-0.0033388750162
1536679199737570704,3385,1536679199728825668,Quadricopter_base,1.37214517593,-0.115032374859,0.0758230537176,-0.0355153530836,-0.0245849117637,0.00412880536169
1536679199773743643,3386,1536679199766208302,Quadricopter_base,1.31744396687,-0.11097034812,0.0740182325244,-0.22659265995,-0.0200886633247,-0.0187031645328
1536679199814811541,3387,1536679199806938818,Quadricopter_base,1.2604341507,-0.101495176554,0.0695443302393,-0.139811262488,-0.0447351299226,-0.00668948050588
1536679199858603990,3388,1536679199850917840,Quadricopter_base,1.1996588707,-0.0883821845055,0.0700056552887,0.0850931927562,-0.0693561062217,0.0245578978211
1536679199901152159,3389,1536679199893632422,Quadricopter_base,1.13913202286,-0.0789939761162,0.064600713551,-0.0710895061493,-0.0291325878352,0.00574505655095
1536679199944167325,3390,1536679199936304286,Quadricopter_base,1.07953488827,-0.068941026926,0.0524354055524,-0.267239838839,-0.0734615623951,-0.0154059240595
1536679199987595318,3391,1536679199979277527,Quadricopter_base,1.01556062698,-0.052700817585,0.0347054041922,-0.0477974191308,-0.0672095119953,0.0124174244702
1536679200027904189,3392,1536679200017185781,Quadricopter_base,0.947651028633,-0.0346761345863,0.0214779451489,0.23854419589,-0.0597861967981,0.04915234074
1536679200075519630,3393,1536679200065154703,Quadricopter_base,0.880609512329,-0.0225811302662,0.0102674998343,0.172048002481,-0.0552837140858,0.0345589369535
1536679200122118781,3394,1536679200112287726,Quadricopter_base,0.812990367413,-0.015211969614,0.00815510563552,-0.00770340487361,-0.0276146903634,-0.00289398361929
1536679200168696235,3395,1536679200159064793,Quadricopter_base,0.746187210083,-0.00734196603298,-0.000230057368753,-0.0192552600056,-0.0812214016914,-0.00932584423572
1536679200212242862,3396,1536679200202437633,Quadricopter_base,0.676595270634,0.000621885061264,-0.00151515193284,-0.00148038135376,-0.121381193399,-0.0067335665226
1536679200250625005,3397,1536679200240824961,Quadricopter_base,0.604407846928,0.00758981704712,-0.00104069744702,-0.00278969341889,-0.163759067655,-0.00254449993372
1536679200289613199,3398,1536679200279848119,Quadricopter_base,0.532407581806,0.0130241364241,-0.00581264775246,-0.136025235057,-0.415533125401,-0.00208498071879
1536679200335830922,3399,1536679200326127273,Quadricopter_base,0.451326340437,0.0175355225801,-0.0163435898721,-0.193889275193,-0.472849369049,-0.00440615834668
1536679200385504267,3400,1536679200375254166,Quadricopter_base,0.355637729168,0.0216304957867,-0.0268578603864,-0.170907959342,-0.331071138382,-0.0118552157655
1536679200435737427,3401,1536679200425788067,Quadricopter_base,0.25014013052,0.0266553089023,-0.0355505980551,-0.127567946911,-0.314602524042,-0.00414837617427
1536679200481038975,3402,1536679200470290513,Quadricopter_base,0.132921338081,0.032872505486,-0.0307857990265,-0.0236837044358,-0.377559125423,0.0240036435425
1536679200533390342,3403,1536679200522508515,Quadricopter_base,0.00843824539334,0.0359495542943,-0.0342667102814,-0.0155762955546,-0.357054024935,0.0185288637877
1536679200581287980,3404,1536679200571463538,Quadricopter_base,-0.127513349056,0.0360812544823,-0.0460576973855,0.135347127914,0.00698985625058,0.0142677268013
1536679200629478848,3405,1536679200619662668,Quadricopter_base,-0.267352968454,0.0348525196314,-0.0621569156647,0.393942922354,0.518390417099,0.0248972605914
1536679200671352254,3406,1536679200663914768,Quadricopter_base,-0.39638081193,0.0290263146162,-0.0675737857819,0.436244636774,0.762099146843,0.00886424537748
1536679200714515033,3407,1536679200704447081,Quadricopter_base,-0.502206802368,0.0186076313257,-0.0727415084839,0.302690118551,0.66188699007,-0.0175406597555
1536679200761443415,3408,1536679200751122050,Quadricopter_base,-0.586680173874,0.00566504895687,-0.072226524353,0.150317817926,0.405887335539,-0.0327316634357
1536679200810710658,3409,1536679200800745013,Quadricopter_base,-0.661660790443,-0.006680727005,-0.0647223070264,0.1769348979,0.384676784277,-0.0243777260184
1536679200858099441,3410,1536679200847783948,Quadricopter_base,-0.72959446907,-0.0192906558514,-0.0550568066537,0.287932991982,0.669060647488,-0.0117573710158
1536679200906591233,3411,1536679200896106282,Quadricopter_base,-0.781244575977,-0.0343631803989,-0.042561288923,0.238006338477,0.84895169735,-0.0124797699973
1536679200954575839,3412,1536679200944437894,Quadricopter_base,-0.808089613914,-0.0485329478979,-0.0271081924438,0.0958569347858,0.67707824707,-0.0140391252935
1536679201003407771,3413,1536679200993119432,Quadricopter_base,-0.815053403378,-0.0576793402433,-0.0184369087219,0.0696813464165,0.389647126198,-0.0141427302733
1536679201047921257,3414,1536679201038183896,Quadricopter_base,-0.811510443687,-0.063807412982,-0.011883973144,0.115581810474,0.311064392328,-0.00889194570482
1536679201092044947,3415,1536679201081951220,Quadricopter_base,-0.801128149033,-0.0698876231909,-0.0129854688421,0.135045230389,0.400164961815,-0.00252820202149
1536679201140197185,3416,1536679201131462619,Quadricopter_base,-0.780713379383,-0.0766229778528,-0.00219344906509,0.0768549144268,0.529668867588,0.00836367439479
1536679201186129485,3417,1536679201175845478,Quadricopter_base,-0.747755408287,-0.0802650302649,0.00342249497771,0.0639403313398,0.509818911552,0.0128627307713
1536679201234666476,3418,1536679201224370748,Quadricopter_base,-0.699834644794,-0.0792385339737,0.0151479188353,0.161931037903,0.351343899965,-0.00274431798607
1536679201280864862,3419,1536679201270386154,Quadricopter_base,-0.641513347626,-0.0783611387014,0.0224912296981,0.132193401456,0.204667240381,-0.00272695650347
1536679201329014921,3420,1536679201318968199,Quadricopter_base,-0.577330648899,-0.0797145664692,0.023252973333,-0.0318778567016,0.22329813242,0.0276477783918
1536679201377062514,3421,1536679201366874189,Quadricopter_base,-0.509510397911,-0.0778157040477,0.0193333607167,0.052391346544,0.23356564343,0.0168691985309
1536679201418145861,3422,1536679201407820271,Quadricopter_base,-0.435115784407,-0.0737314447761,0.0177657529712,0.186852648854,0.177518695593,-0.00890271831304
1536679201462741530,3423,1536679201451349295,Quadricopter_base,-0.354846537113,-0.0733197331429,0.0160348489881,0.0592592433095,0.196222245693,0.0163174010813
1536679201508436821,3424,1536679201497373577,Quadricopter_base,-0.268828570843,-0.0727090612054,0.00969529803842,-0.0151385096833,0.101920157671,0.0254669561982
1536679201559786613,3425,1536679201549642097,Quadricopter_base,-0.179480403662,-0.0697743147612,0.00249028485268,0.0423842146993,-0.0416151732206,0.00106506852899
1536679201603085180,3426,1536679201593059041,Quadricopter_base,-0.08898191154,-0.0691502392292,-0.000139475712785,-0.0719840675592,-0.0845415219665,0.0123720997944
1536679201651586586,3427,1536679201641322898,Quadricopter_base,-0.000197717905394,-0.0688356012106,-0.00439524650574,-0.200337305665,-0.153096705675,0.0267512090504
1536679201698055714,3428,1536679201687976692,Quadricopter_base,0.0854834318161,-0.0644796788692,-0.00260710832663,-0.174039185047,-0.289836317301,0.009705837816
1536679201739102606,3429,1536679201731031878,Quadricopter_base,0.162515044212,-0.0585867464542,-0.00394463352859,-0.155135884881,-0.299892008305,0.000202700917725
1536679201776189261,3430,1536679201768624169,Quadricopter_base,0.231574580073,-0.052993632853,-0.0019705274608,-0.24839630723,-0.282887011766,0.00842077285051
1536679201821520155,3431,1536679201813876901,Quadricopter_base,0.29183357954,-0.0435657501221,0.00536203384399,-0.183914870024,-0.23168566823,0.00332783628255
1536679201862747944,3432,1536679201854743511,Quadricopter_base,0.343981832266,-0.029652364552,0.0119268884882,-0.00349212903529,-0.220195800066,-0.0206516310573
1536679201899069475,3433,1536679201891174503,Quadricopter_base,0.390625923872,-0.0168845951557,0.00990868080407,0.0421854071319,-0.271466314793,-0.02997934632
1536679201934342413,3434,1536679201926814311,Quadricopter_base,0.433874815702,-0.00865440070629,0.0164127331227,-0.0909677892923,-0.402306288481,-0.0172755140811
1536679201969117336,3435,1536679201960929987,Quadricopter_base,0.46768990159,-0.00254629552364,0.0173997860402,-0.155897513032,-0.459121316671,-0.00846213009208
1536679202003040660,3436,1536679201995391114,Quadricopter_base,0.487812191248,0.00284865498543,0.0219690799713,-0.134616881609,-0.335440933704,-0.00857388228178
1536679202038022820,3437,1536679202029883830,Quadricopter_base,0.497103095055,0.00904862582684,0.026957988739,-0.0200243685395,-0.16455116868,-0.0117612052709
1536679202072046771,3438,1536679202064225645,Quadricopter_base,0.501766681671,0.0156849175692,0.0275897979736,0.113326832652,-0.171892374754,-0.0144883347675
1536679202106201724,3439,1536679202098468879,Quadricopter_base,0.505032598972,0.0163950026035,0.0305116176605,-0.0725918114185,-0.232678279281,-0.0128098847345
1536679202142603675,3440,1536679202135213183,Quadricopter_base,0.502704262733,0.0156429111958,0.0397169589996,-0.172810837626,-0.247618257999,-0.00929425098002
1536679202181192627,3441,1536679202173147078,Quadricopter_base,0.493320703506,0.0180929005146,0.040271282196,-0.0524170845747,-0.288680136204,-0.00547369103879
1536679202217790080,3442,1536679202210013801,Quadricopter_base,0.475237846375,0.019430860877,0.0484132766724,0.011271590367,-0.211597561836,-0.00395847996697
1536679202254223918,3443,1536679202246557504,Quadricopter_base,0.451595634222,0.0185794979334,0.0538659095764,0.0438963659108,-0.119460858405,-0.0054221469909
1536679202289063014,3444,1536679202281440111,Quadricopter_base,0.426508843899,0.0154432058334,0.0528228282928,0.00176012737211,-0.163047432899,-0.0094438707456
1536679202324320609,3445,1536679202314542058,Quadricopter_base,0.398512303829,0.00893883407116,0.0448417700827,-0.189333245158,-0.122353389859,-0.0219499338418
1536679202368215532,3446,1536679202358403502,Quadricopter_base,0.365245729685,0.00458376854658,0.038435459137,-0.268395781517,-0.0355492420495,-0.0294318683445
1536679202415869769,3447,1536679202405990343,Quadricopter_base,0.328950643539,0.00833312422037,0.0273668784648,-0.0345550514758,-0.0949536710978,-0.00956190936267
1536679202464541762,3448,1536679202454537541,Quadricopter_base,0.290707081556,0.0137125775218,0.0154840946198,0.115987353027,-0.201208457351,0.00999365933239
1536679202514288982,3449,1536679202503582602,Quadricopter_base,0.247702568769,0.0129788517952,0.0115478029475,-0.00473683420569,-0.0987816154957,-0.00282113417052
1536679202552395430,3450,1536679202542228757,Quadricopter_base,0.20115891099,0.0101256929338,0.00748872756958,-0.0825373977423,0.0503747612238,-0.0134621197358
1536679202593475295,3451,1536679202583599324,Quadricopter_base,0.155917972326,0.0106472223997,-0.00527739524841,0.00971429888159,0.013141813688,0.00202259374782
1536679202638479250,3452,1536679202628704454,Quadricopter_base,0.109938494861,0.0120105855167,-0.0103175630793,0.107071951032,0.0116837676615,0.0145665854216
1536679202677987874,3453,1536679202668294556,Quadricopter_base,0.063537850976,0.00985456630588,-0.00375628424808,0.0296033713967,0.0972526818514,0.00441397726536
1536679202724781017,3454,1536679202714707075,Quadricopter_base,0.0193768180907,0.00686038797721,0.00568985939026,-0.0588445551693,0.140814647079,-0.00291662709787
1536679202772219454,3455,1536679202761942197,Quadricopter_base,-0.0211700871587,0.00853655487299,0.0011324880179,0.108152866364,0.0959248244762,0.0131059670821
1536679202819019741,3456,1536679202808764753,Quadricopter_base,-0.0585120730102,0.0100102107972,0.00389337562956,0.20852817595,0.0117141855881,0.0232635326684
1536679202868215458,3457,1536679202857609019,Quadricopter_base,-0.0936768427491,0.00422558188438,0.0084602823481,-0.00883920304477,0.0726764798164,0.00490314699709
1536679202917099907,3458,1536679202906711949,Quadricopter_base,-0.128029614687,-0.00225829705596,0.00905752275139,-0.103477135301,0.210198551416,-0.00557989114895
1536679202967048302,3459,1536679202958595292,Quadricopter_base,-0.159425631166,-0.00275950878859,0.0118064880371,0.0547247305512,0.225089609623,0.00349223357625
1536679203016853484,3460,1536679203006805276,Quadricopter_base,-0.185499876738,-0.000913254916668,0.020010471344,0.185919463634,0.188875064254,0.00884699448943
1536679203062802867,3461,1536679203052665509,Quadricopter_base,-0.205133140087,-0.0014782845974,0.0208210945129,0.195270568132,0.168884456158,0.00724046723917
1536679203105845530,3462,1536679203095388465,Quadricopter_base,-0.218825995922,-0.0060221478343,0.0227665901184,0.122152686119,0.177637770772,-0.00159531587269
1536679203156576317,3463,1536679203146569467,Quadricopter_base,-0.226763248444,-0.0131808966398,0.0275528430939,-0.0128143364564,0.162491425872,-0.0109199229628
1536679203201368091,3464,1536679203191453826,Quadricopter_base,-0.230041667819,-0.0190405584872,0.0337910652161,-0.0851542949677,0.0968357473612,-0.011374396272
1536679203244348066,3465,1536679203234256291,Quadricopter_base,-0.232136100531,-0.0219906941056,0.0341415405273,-0.0737502127886,0.114278882742,-0.00691268127412
1536679203287813753,3466,1536679203277733341,Quadricopter_base,-0.233792304993,-0.0205219276249,0.0348043441772,0.112186282873,0.18505859375,-0.00687294267118
1536679203335834107,3467,1536679203325942567,Quadricopter_base,-0.23020799458,-0.0193842574954,0.0296151638031,0.169282987714,0.15729509294,-0.0124210398644
1536679203382788938,3468,1536679203372723708,Quadricopter_base,-0.220730721951,-0.023360747844,0.0214493274689,-0.0741363614798,0.180063530803,-0.00806627515703
1536679203425974341,3469,1536679203415826769,Quadricopter_base,-0.207568943501,-0.024914663285,0.00419020606205,-0.180302932858,0.158386364579,-0.00214566569775
1536679203474114813,3470,1536679203464071530,Quadricopter_base,-0.191562727094,-0.0175269320607,-0.00260472251102,0.0711737424135,0.00673079444095,-0.00852886587381
1536679203522118999,3471,1536679203512199657,Quadricopter_base,-0.17470023036,-0.010075610131,-0.00380516075529,0.220410093665,-0.0455823205411,-0.0120592899621
1536679203569000930,3472,1536679203558945912,Quadricopter_base,-0.15712672472,-0.00959308817983,-0.00173211121,0.11922109127,0.0273304581642,-0.00768850278109
1536679203619336465,3473,1536679203609320273,Quadricopter_base,-0.137757867575,-0.0121340043843,0.00148892425932,0.0591992251575,0.0458645820618,-0.004651743453
1536679203672083933,3474,1536679203660814368,Quadricopter_base,-0.116899490356,-0.0165490824729,0.00801205541939,-0.00852845329791,0.0983641371131,0.00414664531127
1536679203722090450,3475,1536679203712191225,Quadricopter_base,-0.0945140719414,-0.0203362852335,-0.00370621681213,-0.0636370033026,0.0981093868613,0.00811438262463
1536679203771273830,3476,1536679203761227603,Quadricopter_base,-0.0694009065628,-0.0204961821437,-0.0160574913025,0.00201832549646,-0.0246686898172,-0.00392619799823
1536679203817486740,3477,1536679203807446045,Quadricopter_base,-0.0449226126075,-0.0198987033218,-0.0249075889587,0.0944472178817,-0.0446502715349,-0.0110120624304
1536679203856735394,3478,1536679203847209343,Quadricopter_base,-0.0196368917823,-0.022483067587,-0.0268065929413,0.0370393395424,-0.0815195292234,-0.00493648368865
1536679203893122445,3479,1536679203883558625,Quadricopter_base,0.00532646710053,-0.0265648569912,-0.0246477127075,0.00821569189429,-0.160897299647,-0.00181503489148
1536679203927225805,3480,1536679203919348645,Quadricopter_base,0.0259596183896,-0.0335831530392,-0.0168907642365,-0.0588278248906,-0.0581161864102,0.00226025888696
1536679203965568135,3481,1536679203957928074,Quadricopter_base,0.0441388972104,-0.0415496528149,-0.00818610191345,-0.183336317539,0.0543500930071,0.00611646333709
1536679204000798125,3482,1536679203992820583,Quadricopter_base,0.0621563233435,-0.0433931313455,-0.00563979148865,-0.0991188287735,-0.0214252956212,0.00295345764607
1536679204036083600,3483,1536679204028332089,Quadricopter_base,0.0789162665606,-0.0412723198533,-0.0139927864075,0.0437664799392,-0.12601415813,-0.0032062958926
1536679204074260150,3484,1536679204066596850,Quadricopter_base,0.0937727689743,-0.042762067169,-0.018744468689,-0.084452137351,-0.120876543224,-0.000332187046297
1536679204114323962,3485,1536679204104135740,Quadricopter_base,0.10442751646,-0.0447706207633,-0.029376745224,-0.176177337766,-0.0269771199673,0.00463145738468
1536679204155437320,3486,1536679204144999322,Quadricopter_base,0.113181628287,-0.0416881814599,-0.0335228443146,-0.0864887833595,-0.0799493417144,0.00133838283364
1536679204200562488,3487,1536679204190443128,Quadricopter_base,0.119220241904,-0.0364754982293,-0.0371479988098,-0.00014951461344,-0.0961231812835,-0.00195894832723
1536679204243076601,3488,1536679204232915482,Quadricopter_base,0.122887469828,-0.0322284810245,-0.0337302684784,-0.00549034960568,-0.0748276114464,-0.00356705812737
1536679204288530802,3489,1536679204278386457,Quadricopter_base,0.126103550196,-0.0292407646775,-0.0291669368744,-0.100960433483,-0.153389811516,0.000884674722329
1536679204337346834,3490,1536679204327120566,Quadricopter_base,0.125518232584,-0.0262974351645,-0.0296175479889,-0.199890598655,-0.184299573302,0.00537918973714
1536679204387454656,3491,1536679204377155734,Quadricopter_base,0.116930574179,-0.0198880843818,-0.03333568573,-0.0802565291524,-0.0351851470768,0.00863418076187
1536679204438631094,3492,1536679204428305469,Quadricopter_base,0.105712220073,-0.0112350322306,-0.0324428081512,0.00994047243148,0.0252429023385,0.0103695522994
1536679204487381444,3493,1536679204476881844,Quadricopter_base,0.0959982722998,-0.00292478501797,-0.0216376781464,-0.0611645057797,-0.0347269549966,0.0110731879249
1536679204527684506,3494,1536679204517960374,Quadricopter_base,0.0848694592714,0.00823526643217,-0.00467419624329,0.0567108057439,-0.0967671349645,0.0104705747217
1536679204567620375,3495,1536679204557725871,Quadricopter_base,0.0715364515781,0.018361646682,0.00215411186218,0.188889220357,-0.0758227407932,0.00894120521843
1536679204607132278,3496,1536679204597778257,Quadricopter_base,0.0576442331076,0.0216005537659,0.00332832336426,0.0770592987537,0.0285270716995,0.00216183881275
1536679204646910771,3497,1536679204637286841,Quadricopter_base,0.0452567562461,0.0214854571968,0.00139236450195,-0.0805036872625,0.0836968794465,-0.00647659413517
1536679204694572621,3498,1536679204684012162,Quadricopter_base,0.0340258255601,0.02531317994,0.00630617141724,0.00814165733755,0.0395679287612,-0.0112056732178
1536679204745374697,3499,1536679204734874937,Quadricopter_base,0.0239596515894,0.0301220975816,0.00855207443237,0.0753601491451,-0.00212250067852,-0.00810380186886
1536679204790634909,3500,1536679204780227125,Quadricopter_base,0.0136009426787,0.0321450531483,0.0143933296204,0.0296997632831,0.096940651536,-0.00343584641814
1536679204833798432,3501,1536679204823812309,Quadricopter_base,0.00488207489252,0.0335314944386,0.022931098938,-0.0126761328429,0.191881805658,-0.000740443123505
1536679204880713618,3502,1536679204870582710,Quadricopter_base,0.0016461154446,0.0386150069535,0.0281929969788,0.0845565795898,0.0560903139412,0.00635150400922
1536679204928116296,3503,1536679204918168977,Quadricopter_base,0.000874790363014,0.0436915419996,0.0268292427063,0.191765740514,-0.0285429731011,0.0104797817767
1536679204971561957,3504,1536679204961726514,Quadricopter_base,0.00111210811883,0.0422332659364,0.0280487537384,0.0495487675071,0.0363513752818,0.0104077197611
1536679205017433171,3505,1536679205007792256,Quadricopter_base,0.00338152609766,0.0385715737939,0.0290870666504,-0.0984377488494,0.0196584593505,0.0103431362659
1536679205064005917,3506,1536679205054108280,Quadricopter_base,0.00458401162177,0.0388789251447,0.0357413291931,0.0368212200701,0.0263813398778,0.00636166427284
1536679205105496763,3507,1536679205095668239,Quadricopter_base,0.00636195205152,0.0408710576594,0.0340807437897,0.235795080662,-0.0223824605346,-0.000804236333352
1536679205144837779,3508,1536679205134998263,Quadricopter_base,0.0115125067532,0.036688696593,0.0319707393646,0.147507458925,-0.148714363575,-0.00566409341991
1536679205185619217,3509,1536679205175638073,Quadricopter_base,0.0149110602215,0.0252391509712,0.0206804275513,-0.105406336486,-0.0869090110064,-0.00406094593927
1536679205232808658,3510,1536679205222896535,Quadricopter_base,0.0141924032941,0.0146840643138,0.0122225284576,-0.124708637595,0.0236229877919,0.00376425660215
1536679205272927681,3511,1536679205262877328,Quadricopter_base,0.0118579529226,0.00912733189762,0.0109624862671,0.0859329104424,0.0486453063786,0.00888428185135
1536679205312875918,3512,1536679205302933202,Quadricopter_base,0.0121371746063,0.00313826068304,0.0111353397369,0.160136222839,-0.0422095805407,0.00443263538182
1536679205353128539,3513,1536679205343252003,Quadricopter_base,0.0142951551825,-0.00827030278742,0.00874996185303,-0.00847539305687,-0.112275540829,-0.00524231698364
1536679205400924901,3514,1536679205390770462,Quadricopter_base,0.0127851385623,-0.0221446938813,0.0103580951691,-0.110124200583,0.0159829221666,-0.00387857644819
1536679205448614799,3515,1536679205438497113,Quadricopter_base,0.0094954483211,-0.0334219411016,0.00987410545349,-0.0761719867587,0.117177300155,-0.00355508271605
1536679205504689693,3516,1536679205494534879,Quadricopter_base,0.00946299731731,-0.0412424616516,0.00569701194763,-0.0710431039333,0.00638025859371,-0.00964573770761
1536679205555465912,3517,1536679205545396909,Quadricopter_base,0.00921467039734,-0.0472709909081,-0.00251531600952,-0.0736351162195,-0.0252810381353,-0.00612378353253
1536679205602213572,3518,1536679205592231922,Quadricopter_base,0.00673168897629,-0.0520368441939,-0.00611782073975,-0.049458540976,0.0540064610541,-0.00235789339058
1536679205654134283,3519,1536679205644272444,Quadricopter_base,0.00594396609813,-0.0547785796225,-0.00916481018066,-0.0389281623065,-0.0292359367013,-0.00668894965202
1536679205696590764,3520,1536679205686602673,Quadricopter_base,0.00670247990638,-0.0561655387282,-0.00136733055115,-0.0667954832315,-0.261852890253,-0.0134169356897
1536679205738779045,3521,1536679205728696890,Quadricopter_base,0.00353126227856,-0.0590232610703,0.00845670700073,-0.205299124122,-0.463381290436,-0.018724558875
1536679205781808699,3522,1536679205771373191,Quadricopter_base,-0.0117890574038,-0.0625877529383,0.0225484371185,-0.329139411449,-0.501161456108,-0.0217676516622
1536679205829417534,3523,1536679205819335513,Quadricopter_base,-0.0420729592443,-0.0631105229259,0.0233995914459,-0.272132515907,-0.395031541586,-0.0192148424685
1536679205876714432,3524,1536679205866612467,Quadricopter_base,-0.0840224176645,-0.0596317723393,0.0140917301178,-0.139462292194,-0.394680500031,-0.00806953199208
1536679205930709256,3525,1536679205921555077,Quadricopter_base,-0.135391995311,-0.0570300593972,0.00601410726085,-0.1752178967,-0.439004778862,-0.0121790524572
1536679205977189301,3526,1536679205967394290,Quadricopter_base,-0.197247609496,-0.0553515031934,-0.00575900403783,-0.244995594025,-0.474752515554,-0.0216397289187
1536679206026766411,3527,1536679206015875900,Quadricopter_base,-0.27315095067,-0.0530765429139,-0.0259947758168,-0.190161183476,-0.26963236928,-0.0265327095985
1536679206073021452,3528,1536679206062880717,Quadricopter_base,-0.363884568214,-0.0482416003942,-0.0435698106885,0.0436408817768,0.227797940373,-0.0240637399256
1536679206120644290,3529,1536679206111670419,Quadricopter_base,-0.454332053661,-0.0396158695221,-0.0609147548676,0.358497470617,0.61335003376,-0.00639143353328
1536679206166661554,3530,1536679206155596800,Quadricopter_base,-0.525617778301,-0.0343589782715,-0.0703966617584,0.224097460508,0.427389502525,-0.00500050839037
1536679206212575442,3531,1536679206202856923,Quadricopter_base,-0.579952538013,-0.0331264287233,-0.0626492500305,-0.188987165689,-0.102304808795,-0.0167383626103
1536679206262708568,3532,1536679206252539589,Quadricopter_base,-0.63577735424,-0.0277765244246,-0.0550925694406,-0.234672039747,-0.349178373814,-0.0011872027535
1536679206313791799,3533,1536679206303536105,Quadricopter_base,-0.70311164856,-0.0174101442099,-0.0661945343018,0.044122390449,-0.136374399066,0.0274915974587
1536679206359443364,3534,1536679206349432079,Quadricopter_base,-0.77997559309,-0.0085087120533,-0.0745582506061,0.267094194889,0.374337464571,0.0111321834847
1536679206398853400,3535,1536679206391257871,Quadricopter_base,-0.852754592896,-0.00297853350639,-0.0704705715179,0.390358686447,0.844927489758,-0.0202160924673
1536679206441088149,3536,1536679206433246715,Quadricopter_base,-0.901213288307,0.000414431182435,-0.0534236468375,0.29409262538,0.710993528366,-0.0172676090151
1536679206477797942,3537,1536679206470212689,Quadricopter_base,-0.921292185783,0.00244957208633,-0.0484526157379,-0.0664044618607,0.041072897613,0.00190749589819
1536679206513975349,3538,1536679206504340533,Quadricopter_base,-0.936535954475,0.00850993394852,-0.0409460105002,-0.0771656632423,-0.367052793503,0.0173185430467
1536679206562375798,3539,1536679206552965391,Quadricopter_base,-0.964791893959,0.014168381691,-0.0216198042035,0.106729269028,-0.154189482331,0.0168305058032
1536679206610835619,3540,1536679206599309827,Quadricopter_base,-0.999664008617,0.0120303034782,-0.00584960076958,-0.00715689174831,0.280254155397,-0.00644092960283
1536679206656499607,3541,1536679206646479649,Quadricopter_base,-1.02871382236,0.012266099453,0.00408649304882,0.00993668660522,0.369849354029,-0.0129230059683
1536679206707197515,3542,1536679206696058932,Quadricopter_base,-1.04698550701,0.0176879763603,0.0183153115213,0.086811773479,0.142404466867,-0.00720642879605
1536679206752997347,3543,1536679206742821836,Quadricopter_base,-1.06021523476,0.0227285325527,0.0135910511017,0.0944711267948,0.0884735584259,-0.00238349684514
1536679206801425077,3544,1536679206790995771,Quadricopter_base,-1.07203519344,0.0254682898521,0.00780940055847,0.0636280626059,0.249907702208,-0.000165050165378
1536679206849187286,3545,1536679206839114877,Quadricopter_base,-1.0815346241,0.0279776751995,0.00840902142227,0.09701423347,0.586724042892,-0.00303958170116
1536679206898441699,3546,1536679206888687480,Quadricopter_base,-1.07827925682,0.0347445011139,0.0131189776585,0.297455728054,0.685831606388,-0.014501420781
1536679206946762331,3547,1536679206937039455,Quadricopter_base,-1.05295073986,0.0421523153782,0.0181722640991,0.299321293831,0.328556537628,-0.0158639363945
1536679206996855629,3548,1536679206986115580,Quadricopter_base,-1.01200270653,0.0465734004974,0.0183832645416,0.119856521487,-0.111833624542,-0.00640074629337
1536679207040071671,3549,1536679207031983081,Quadricopter_base,-0.970671832561,0.0469941794872,0.0116026448086,-0.0837244689465,-0.270078122616,0.0136396856979
1536679207078727336,3550,1536679207070456532,Quadricopter_base,-0.936485767365,0.0464956760406,0.0102198123932,-0.10680782795,-0.220634102821,0.0211873482913
1536679207118565520,3551,1536679207110497081,Quadricopter_base,-0.91074681282,0.0460383892059,0.0109851304442,-0.013393512927,-0.00629024673253,0.0172294471413
1536679207156315060,3552,1536679207148246183,Quadricopter_base,-0.887628793716,0.0448571741581,0.02276420407,0.0495756939054,0.243514999747,0.0102054923773
1536679207197665261,3553,1536679207189872863,Quadricopter_base,-0.860545575619,0.0454387366772,0.032285451889,0.230990201235,0.357885926962,-0.00638515129685
1536679207241159532,3554,1536679207230414515,Quadricopter_base,-0.822511911392,0.0443169176579,0.0390112437308,0.265568494797,0.302154242992,-0.0102637652308
1536679207285917973,3555,1536679207275827295,Quadricopter_base,-0.775111079216,0.0382336080074,0.0403094291687,0.0386088863015,0.340680629015,0.0168813001364
1536679207331760855,3556,1536679207321658326,Quadricopter_base,-0.720859646797,0.0340559482574,0.0352609120309,0.0164681840688,0.4222394526,0.0255731679499
1536679207379229679,3557,1536679207369052101,Quadricopter_base,-0.657892644405,0.0346813052893,0.018804077059,0.156866341829,0.312670320272,0.000965943618212
1536679207425485763,3558,1536679207415272223,Quadricopter_base,-0.583359003067,0.034601777792,0.00848650932312,0.067534416914,0.169352307916,0.00386280147359
1536679207470882626,3559,1536679207460628609,Quadricopter_base,-0.502573370934,0.0335905253887,0.00528098084033,-0.0893876776099,0.153558537364,0.0244499947876
1536679207514905187,3560,1536679207504558825,Quadricopter_base,-0.420373976231,0.0362482517958,0.00172734027728,0.00131309544668,0.231639921665,0.00701483990997
1536679207561220845,3561,1536679207550639243,Quadricopter_base,-0.334511876106,0.0429006665945,-0.0115048876032,0.210824370384,0.135639861226,-0.0405569374561
1536679207606964625,3562,1536679207596787909,Quadricopter_base,-0.240588128567,0.0475324317813,-0.0197958890349,0.251715809107,-0.0586017221212,-0.0517051964998
1536679207652698429,3563,1536679207642313376,Quadricopter_base,-0.144771888852,0.0448181666434,-0.0265169106424,0.0978710800409,-0.0565211139619,-0.00904111005366
1536679207703962300,3564,1536679207693695275,Quadricopter_base,-0.0490653030574,0.0369990393519,-0.037579536438,-0.128297537565,-0.0617673918605,0.0381292849779
1536679207756652663,3565,1536679207746458313,Quadricopter_base,0.0447168201208,0.03146513924,-0.0536918640137,-0.185005292296,-0.194903001189,0.0311314705759
1536679207800839955,3566,1536679207790519729,Quadricopter_base,0.134291753173,0.0296293459833,-0.058456659317,-0.0878485739231,-0.244956016541,-0.000857103208546
1536679207848702527,3567,1536679207838750782,Quadricopter_base,0.220720916986,0.0278714336455,-0.0481367111206,-0.0729965940118,-0.314937978983,-0.0142475133762
1536679207891215258,3568,1536679207880962727,Quadricopter_base,0.299774438143,0.0239871442318,-0.0349307097495,-0.134701013565,-0.329408466816,-0.00659754220396
1536679207937603216,3569,1536679207927832992,Quadricopter_base,0.369751602411,0.0197124183178,-0.0270068645477,-0.179601386189,-0.379209846258,-0.00362721621059
1536679207984847572,3570,1536679207974744080,Quadricopter_base,0.429886609316,0.0154684782028,-0.0177538413554,-0.243038013577,-0.425540357828,-0.0014674263075
1536679208028855575,3571,1536679208018344471,Quadricopter_base,0.477661192417,0.0125840008259,-0.0116229066625,-0.279021799564,-0.415029227734,-0.00165415275842
1536679208075857055,3572,1536679208065317680,Quadricopter_base,0.512337267399,0.0137344896793,-0.0130057325587,-0.183848008513,-0.433618158102,-0.00854988209903
1536679208114935762,3573,1536679208106836513,Quadricopter_base,0.534021914005,0.0173067301512,-0.018249752,0.0144444219768,-0.389895170927,-0.0154290068895
1536679208156462622,3574,1536679208146149319,Quadricopter_base,0.545776724815,0.0179654061794,-0.0103843212128,0.143570914865,-0.302874267101,-0.0183697380126
1536679208209448242,3575,1536679208199533666,Quadricopter_base,0.551649212837,0.0113679021597,-0.000183582335012,0.0682665556669,-0.229838013649,-0.0164640918374
1536679208256742772,3576,1536679208246754308,Quadricopter_base,0.553449928761,-0.00134892761707,0.0124132633209,-0.135284349322,-0.216501623392,-0.0166277457029
1536679208302240545,3577,1536679208292355592,Quadricopter_base,0.550646007061,-0.0136580020189,0.0179803371429,-0.274019151926,-0.301365286112,-0.0214843451977
1536679208346996289,3578,1536679208336844080,Quadricopter_base,0.536877155304,-0.0212325155735,0.023444890976,-0.138914331794,-0.238915771246,-0.0133831044659
1536679208395093126,3579,1536679208383331169,Quadricopter_base,0.514320969582,-0.026838183403,0.0309991836548,0.0438386015594,-0.118367001414,-0.00270595541224
1536679208442816950,3580,1536679208431990186,Quadricopter_base,0.490266680717,-0.0364392995834,0.0379359684885,-0.149553582072,-0.112580515444,-0.0144048649818
1536679208490776571,3581,1536679208480653654,Quadricopter_base,0.464105695486,-0.0445543974638,0.0361824035645,-0.309779018164,-0.169960319996,-0.0275550186634
1536679208539588176,3582,1536679208527913658,Quadricopter_base,0.430392026901,-0.046018153429,0.0441610813141,-0.226507633924,-0.209864750504,-0.0233465358615
1536679208587921657,3583,1536679208577291963,Quadricopter_base,0.390298992395,-0.0430871844292,0.0386643409729,-0.0585949756205,-0.206856071949,-0.00535393832251
1536679208635690426,3584,1536679208625063250,Quadricopter_base,0.343963027,-0.0409366041422,0.0347781218588,-0.0448444485664,-0.160359874368,-0.00588309764862
1536679208682318173,3585,1536679208671980781,Quadricopter_base,0.293265223503,-0.0404638722539,0.02690076828,-0.122374400496,-0.0345342643559,-0.0218210276216
1536679208730549944,3586,1536679208720126249,Quadricopter_base,0.239999502897,-0.0370261445642,0.0107336053625,-0.0184516981244,0.0577701218426,-0.0128335822374
1536679208777226746,3587,1536679208767582783,Quadricopter_base,0.185963124037,-0.031242929399,0.00643491698429,0.133205041289,0.0589156672359,0.00319359544665
1536679208823508850,3588,1536679208813559044,Quadricopter_base,0.134862601757,-0.0281472876668,0.0130116939545,0.0602714940906,-0.0434730909765,-0.00209107203409
1536679208868313420,3589,1536679208858354137,Quadricopter_base,0.0844362825155,-0.0285276714712,0.00932335853577,-0.0882594585419,0.010960184969,-0.0226734541357
1536679208917102231,3590,1536679208907078772,Quadricopter_base,0.0321099795401,-0.0273038502783,2.1457524781e-05,-0.0645993724465,0.176996454597,-0.0291394405067
1536679208963065064,3591,1536679208953091430,Quadricopter_base,-0.0172453336418,-0.0220502950251,-0.012354850769,0.048038367182,0.202069312334,-0.0107969436795
1536679209012709052,3592,1536679209002817412,Quadricopter_base,-0.0620195567608,-0.0151886148378,-0.0122809410095,0.0843395963311,0.129444569349,0.00603430205956
1536679209059194124,3593,1536679209049390156,Quadricopter_base,-0.103805497289,-0.00851751118898,-0.000348091067281,0.0974910035729,0.0913971960545,0.0131298527122
1536679209109331283,3594,1536679209099246656,Quadricopter_base,-0.143194943666,-0.00230358168483,0.0151872625574,0.175744369626,0.100923612714,0.0168017558753
1536679209153997560,3595,1536679209143920046,Quadricopter_base,-0.1788610816,0.000939041376114,0.0165712833405,0.227108687162,0.194836974144,0.0146262515336
1536679209200194532,3596,1536679209190204615,Quadricopter_base,-0.208141833544,-0.000225447147386,0.026867389679,0.159002974629,0.217341646552,0.00923825521022
1536679209253548091,3597,1536679209243626091,Quadricopter_base,-0.23005156219,-0.004513643682,0.0331652164459,0.000835824175738,0.195989921689,0.00248647644185
1536679209303706109,3598,1536679209293628437,Quadricopter_base,-0.246909722686,-0.00670620799065,0.0304746627808,0.0154026923701,0.185329437256,0.000985545921139
1536679209351231519,3599,1536679209341170895,Quadricopter_base,-0.260338157415,-0.0064482241869,0.025520324707,0.134103655815,0.218066871166,0.00161826354451
1536679209399292472,3600,1536679209389088994,Quadricopter_base,-0.268223375082,-0.00771762430668,0.0191104412079,0.127605214715,0.290146827698,-0.000158662849572
1536679209443047332,3601,1536679209433131420,Quadricopter_base,-0.268477588892,-0.00987872481346,0.0107681751251,0.0741327404976,0.309636861086,-0.00247043883428
1536679209488610396,3602,1536679209478199275,Quadricopter_base,-0.258927375078,-0.010066203773,0.00644087744877,0.0739336460829,0.122488021851,-0.00834306236356
1536679209528977427,3603,1536679209521225560,Quadricopter_base,-0.245478928089,-0.0103701129556,0.000897646590602,0.0866124778986,0.0511962324381,-0.0123947560787
1536679209566088622,3604,1536679209558290608,Quadricopter_base,-0.23126013577,-0.0131618008018,-0.00773310754448,0.0432172641158,0.170571669936,-0.00817086640745
1536679209612477978,3605,1536679209602297444,Quadricopter_base,-0.212597966194,-0.0153326056898,-0.01505136583,0.0348746441305,0.157369360328,-0.0011997858528
1536679209659308435,3606,1536679209649330010,Quadricopter_base,-0.188783317804,-0.0166172385216,-0.00607132911682,0.0373108237982,0.112536244094,0.00410934071988
1536679209703879015,3607,1536679209693682636,Quadricopter_base,-0.161372065544,-0.0186897963285,-0.000998974195682,-0.0779247358441,0.0676799789071,0.00733793899417
1536679209746648882,3608,1536679209736557345,Quadricopter_base,-0.132875293493,-0.0175908617675,0.00404596282169,-0.0334306880832,0.0293365959078,0.00012168235844
1536679209789574423,3609,1536679209779430006,Quadricopter_base,-0.104896999896,-0.014659428969,0.000443458557129,0.0534550659359,0.0278830975294,-0.00820274930447
1536679209834127742,3610,1536679209823952057,Quadricopter_base,-0.075107768178,-0.0141759468243,-0.00244498229586,-0.0852161794901,0.0261409543455,-0.000536998501047
1536679209880774724,3611,1536679209870572238,Quadricopter_base,-0.0450888574123,-0.0110288411379,0.00147581100464,-0.0554184168577,0.00896677467972,-0.000318041944411
1536679209931164111,3612,1536679209921002765,Quadricopter_base,-0.0154454326257,-0.00397411407903,0.0139307975769,0.161517873406,-0.0257438160479,-0.0164376981556
1536679209977998134,3613,1536679209968170235,Quadricopter_base,0.0148298535496,-0.000790533609688,0.0152993202209,0.159111231565,-0.0604272596538,-0.0183392111212
1536679210027060753,3614,1536679210016657141,Quadricopter_base,0.0461086817086,-0.00420200079679,0.0132977962494,-0.0556763485074,-0.0752425864339,-0.00643448345363
1536679210072935344,3615,1536679210060646532,Quadricopter_base,0.0757483020425,-0.00779119506478,0.00795483589172,-0.156187534332,-0.107710003853,-0.00611255783588
1536679210122187887,3616,1536679210111070381,Quadricopter_base,0.102382794023,-0.00779322162271,0.00426650000736,-0.109910219908,-0.210296496749,-0.00923031009734
1536679210169932355,3617,1536679210158169867,Quadricopter_base,0.123690806329,-0.00716791674495,0.00606298446655,-0.0946956574917,-0.234069138765,-0.00384386745282
1536679210216942700,3618,1536679210206882458,Quadricopter_base,0.137146562338,-0.00632575154305,0.00541090965271,-0.018939005211,-0.124150581658,0.000203388161026
1536679210261078719,3619,1536679210251080389,Quadricopter_base,0.14603330195,-0.00639698281884,0.00481009483337,0.0246946308762,0.0135417226702,0.00263116532005
1536679210305498724,3620,1536679210295091095,Quadricopter_base,0.155372053385,-0.00702014937997,-0.000503063085489,0.0171943400055,0.022474296391,0.00455274200067
1536679210350101491,3621,1536679210342458080,Quadricopter_base,0.165043964982,-0.00802053883672,-0.0106680393219,0.00404068641365,0.0507667325437,0.00229559233412
1536679210390128840,3622,1536679210382327335,Quadricopter_base,0.173396468163,-0.00853851437569,-0.00155448820442,0.101897507906,0.287652641535,-0.00142938783392
1536679210423541073,3623,1536679210415383327,Quadricopter_base,0.184810504317,-0.00808845460415,0.00388145376928,0.288674920797,0.617633521557,-0.00540292728692
1536679210461762835,3624,1536679210454016256,Quadricopter_base,0.21395778656,-0.00948376208544,0.0032842149958,0.182810813189,0.59716552496,0.00053836486768
1536679210505074026,3625,1536679210497003892,Quadricopter_base,0.262210845947,-0.008773855865,-0.00582575984299,0.059070982039,0.180105045438,-0.00376437790692
1536679210544701879,3626,1536679210536778190,Quadricopter_base,0.317123830318,-0.00629426538944,-0.0174677353352,0.0870207026601,-0.0489300265908,-0.0122584113851
1536679210583692106,3627,1536679210575763273,Quadricopter_base,0.372076302767,-0.00706173479557,-0.0244545917958,0.0446858815849,-0.0292648635805,-0.000261390843662
1536679210619361179,3628,1536679210611444980,Quadricopter_base,0.430359393358,-0.0111634582281,-0.0200104732066,-0.142480552197,-0.169399216771,0.0163709465414
1536679210654394473,3629,1536679210646650260,Quadricopter_base,0.486807048321,-0.0144276767969,-0.0136101236567,-0.297098517418,-0.407802939415,0.0180823337287
1536679210688169198,3630,1536679210680191516,Quadricopter_base,0.530272722244,-0.013857409358,-0.0028562520165,-0.230985745788,-0.359558224678,0.0126293301582
1536679210725218787,3631,1536679210717574268,Quadricopter_base,0.560832500458,-0.0112365186214,0.0041973576881,-0.154713124037,-0.170127689838,0.00814251042902
1536679210762435917,3632,1536679210754349909,Quadricopter_base,0.584363460541,-0.00586053729057,0.00477075623348,-0.065562993288,-0.0935790687799,0.00146611104719
1536679210802665489,3633,1536679210795001545,Quadricopter_base,0.604649543762,0.0013575553894,0.0010061255889,0.0370125509799,-0.0971350669861,-0.00481865275651
