%time,field.header.seq,field.header.stamp,field.header.frame_id,field.twist.linear.x,field.twist.linear.y,field.twist.linear.z,field.twist.angular.x,field.twist.angular.y,field.twist.angular.z
1536680815016523530,2259,1536680815009040762,Quadricopter_base,0.0183459315449,-0.0421665348113,0.0144779682159,-0.137116476893,-0.0400596670806,-0.0126155512407
1536680815050784635,2260,1536680815043574691,Quadricopter_base,0.0154736796394,-0.0345200225711,0.0354850292206,0.119216524065,0.0151800494641,-0.00939728599042
1536680815082753947,2261,1536680815075504990,Quadricopter_base,0.0138303916901,-0.0298240855336,0.0471067428589,0.119202367961,0.0267665907741,-0.00802362244576
1536680815122644009,2262,1536680815115032206,Quadricopter_base,0.015391625464,-0.0308016352355,0.0485992431641,-0.167324408889,-0.024861453101,-0.00768391415477
1536680815152172474,2263,1536680815144963221,Quadricopter_base,0.0152209987864,-0.0281177535653,0.0469541549683,-0.188858643174,-0.0343032591045,-0.00720237428322
1536680815183039954,2264,1536680815175566774,Quadricopter_base,0.0119459982961,-0.0189661718905,0.0487351417542,0.0178860612214,-0.0315961837769,-0.00934987701476
1536680815216135476,2265,1536680815209009374,Quadricopter_base,0.00778805091977,-0.0097420969978,0.0463283061981,0.102653063834,-0.0236064549536,-0.00998443178833
1536680815252477409,2266,1536680815245224344,Quadricopter_base,0.00333103630692,-0.00317720533349,0.0412929058075,0.12171843648,0.0195831265301,-0.00661934353411
1536680815300093745,2267,1536680815292943307,Quadricopter_base,0.000544156646356,-0.00113881239668,0.0345897674561,-0.0380059741437,0.0505566224456,-0.00348275341094
1536680815336185389,2268,1536680815328979787,Quadricopter_base,-0.000333725736709,0.00238190917298,0.034989118576,-0.0613991580904,-0.0389151498675,0.00325208436698
1536680815380594197,2269,1536680815372831038,Quadricopter_base,-0.00305313477293,0.00819224957377,0.0389409065247,0.0431606136262,-0.0373202860355,0.00878509320319
1536680815413560988,2270,1536680815406167513,Quadricopter_base,-0.00692102964967,0.0134946722537,0.0375509262085,0.134340956807,-0.00840573385358,0.00687033357099
1536680815447014639,2271,1536680815439512604,Quadricopter_base,-0.00981771573424,0.0151901701465,0.0291132926941,0.0972702726722,-0.00132018409204,0.00616479571909
1536680815476153749,2272,1536680815468334173,Quadricopter_base,-0.0126422597095,0.0125368488953,0.0240862369537,-0.0556612089276,0.105243995786,0.00529409665614
1536680815508533466,2273,1536680815501004681,Quadricopter_base,-0.0131792295724,0.0112942140549,0.0157046318054,-0.129030168056,0.106038533151,0.00176004553214
1536680815540798768,2274,1536680815533315396,Quadricopter_base,-0.0106962099671,0.0155889447778,0.0164878368378,-0.0405239015818,-0.0635208338499,0.000748234509956
1536680815572056011,2275,1536680815564562436,Quadricopter_base,-0.0101774437353,0.0212061125785,0.0111663341522,0.0472207553685,-0.0802911892533,0.000494188512675
1536680815603025840,2276,1536680815595672613,Quadricopter_base,-0.0134174712002,0.0249018929899,0.0129759311676,0.0957853794098,0.100453421474,-0.00046657549683
1536680815633835562,2277,1536680815626399821,Quadricopter_base,-0.0129769425839,0.0258980747312,0.0172853469849,-0.0231261476874,0.0924493446946,-0.00589743815362
1536680815663911101,2278,1536680815656841117,Quadricopter_base,-0.00829648599029,0.0282061062753,0.00994682312012,-0.086484067142,-0.094145834446,-0.0129918856546
1536680815694316214,2279,1536680815687120187,Quadricopter_base,-0.00794480368495,0.0334779024124,-0.00329494476318,0.0900572389364,-0.0264026075602,-0.0139292459935
1536680815726689814,2280,1536680815719454595,Quadricopter_base,-0.00935028120875,0.0351273752749,-0.00704050064087,0.0478789359331,0.161193341017,-0.00994227454066
1536680815765114729,2281,1536680815757723022,Quadricopter_base,-0.00510407378897,0.0364364422858,-0.0109016895294,-0.0367445573211,0.0520531237125,-0.00892233848572
1536680815801264513,2282,1536680815794046990,Quadricopter_base,0.00291874352843,0.0411903373897,-0.0112807750702,0.0519506447017,-0.236379981041,-0.0084015391767
1536680815838607177,2283,1536680815831068354,Quadricopter_base,0.00489936303347,0.0428214929998,-0.0179123878479,0.0741731971502,-0.164247244596,-0.00175350287464
1536680815869613661,2284,1536680815862125194,Quadricopter_base,0.000848790630698,0.0399993024766,-0.0244069099426,0.0441517606378,0.0963373854756,-0.00262084649876
1536680815899225189,2285,1536680815891827567,Quadricopter_base,-0.000435214489698,0.0365444757044,-0.023330450058,0.00429099379107,0.10548107326,-0.00477807316929
1536680815929174485,2286,1536680815921796600,Quadricopter_base,0.00302107911557,0.0350315310061,-0.0190937519073,0.0406429879367,-0.108247935772,-0.00132582976948
1536680815965009847,2287,1536680815957609167,Quadricopter_base,0.00504315923899,0.0320330709219,-0.0224685668945,0.0393593870103,-0.186831206083,-0.00253802281804
1536680816000622333,2288,1536680815993671800,Quadricopter_base,0.000747895333916,0.02518459782,-0.0139796733856,-0.00921970419586,0.0194848030806,-0.00323451543227
1536680816031722705,2289,1536680816024419562,Quadricopter_base,-0.00432641385123,0.0170459579676,-0.0044846534729,-0.111459031701,0.173584491014,-0.00282006617635
1536680816060960015,2290,1536680816053762069,Quadricopter_base,-0.00438817217946,0.0145323863253,-0.00355362892151,-0.0383926331997,-0.00709984730929,-0.00441132904962
1536680816092318758,2291,1536680816084935556,Quadricopter_base,-0.00452727917582,0.0149177759886,-0.0114500522614,0.119249001145,-0.10024432838,-0.00623327773064
1536680816124235638,2292,1536680816116960684,Quadricopter_base,-0.00715412572026,0.0100014265627,-0.0203919410706,0.012538144365,0.0312751717865,-0.00974453426898
1536680816154464226,2293,1536680816147245651,Quadricopter_base,-0.00860033836216,0.00299345888197,-0.0267469882965,-0.169303700328,0.0660209730268,-0.0108997663483
1536680816184883993,2294,1536680816177596512,Quadricopter_base,-0.00955259427428,0.00264547020197,-0.0231599807739,-0.0048521598801,-0.019144859165,-0.00944890547544
1536680816215181029,2295,1536680816207931381,Quadricopter_base,-0.0119646042585,0.00552131887525,-0.0203919410706,0.301486611366,-0.033923022449,-0.00620966218412
1536680816245305028,2296,1536680816237940802,Quadricopter_base,-0.0127792581916,-0.00235573598184,-0.0163745880127,0.0420621447265,0.0562382265925,-0.0112990019843
1536680816275484376,2297,1536680816268121548,Quadricopter_base,-0.0106723736972,-0.0135904941708,-0.0114870071411,-0.244698897004,0.0364819280803,-0.0155089572072
1536680816307032126,2298,1536680816299587004,Quadricopter_base,-0.00943248160183,-0.0151163060218,0.000247955293162,0.0386006161571,-0.0830161944032,-0.0128908529878
1536680816338183857,2299,1536680816330798989,Quadricopter_base,-0.0111870262772,-0.0167155843228,0.00262498855591,0.210042312741,-0.0162681695074,-0.00552932638675
1536680816369119661,2300,1536680816361971957,Quadricopter_base,-0.0124077470973,-0.0266500115395,0.000792741775513,-0.0241818241775,0.135148897767,0.00372018897906
1536680816399712212,2301,1536680816392491155,Quadricopter_base,-0.00924103520811,-0.0368773750961,-0.00811576843262,-0.247114568949,0.0713837742805,0.00666118506342
1536680816430764925,2302,1536680816423521745,Quadricopter_base,-0.00500962138176,-0.0380235388875,-0.0100719928741,-0.0743031799793,-0.109089508653,0.00261531304568
1536680816470344792,2303,1536680816462960773,Quadricopter_base,-0.00571619160473,-0.0365722998977,-0.0124621391296,0.136895909905,-0.0127461971715,-0.0016348939389
1536680816501137562,2304,1536680816493874236,Quadricopter_base,-0.00722153298557,-0.0405868552625,-0.0238955020905,0.0102933412418,0.178583323956,-0.00470804423094
1536680816535626988,2305,1536680816528425376,Quadricopter_base,-0.0032700560987,-0.0443723835051,-0.03777384758,-0.111567169428,0.103653602302,-0.00614846032113
1536680816571991894,2306,1536680816564649924,Quadricopter_base,0.0040947208181,-0.0429500937462,-0.0354492664337,-0.0217345580459,-0.087990693748,-0.0120951989666
1536680816603930849,2307,1536680816596380717,Quadricopter_base,0.00914102233946,-0.0409380160272,-0.038161277771,0.0501687526703,-0.112878941,-0.0135146845132
1536680816634666865,2308,1536680816627229793,Quadricopter_base,0.0106172449887,-0.0420699492097,-0.0423622131348,0.00838133320212,0.0166262108833,-0.0135249728337
1536680816669855702,2309,1536680816662156521,Quadricopter_base,0.0120717659593,-0.0442683771253,-0.0334167480469,-0.0594458431005,0.0977622121572,-0.0123879685998
1536680816701508785,2310,1536680816694121609,Quadricopter_base,0.0160934943706,-0.0442788079381,-0.0153529644012,-0.081743106246,0.0441692918539,-0.00805777311325
1536680816732547975,2311,1536680816724995056,Quadricopter_base,0.0212759431452,-0.0408125892282,-0.0116276741028,-0.00481021543965,-0.0663741156459,-0.00843991432339
1536680816765403129,2312,1536680816758240449,Quadricopter_base,0.0251259021461,-0.0378298312426,-0.0109672546387,-0.0194976869971,-0.0914814174175,-0.00630414532498
1536680816800073994,2313,1536680816792804787,Quadricopter_base,0.0257885418832,-0.0369080975652,-0.014955997467,-0.134338200092,0.0307186506689,-0.000922312960029
1536680816834660930,2314,1536680816827434120,Quadricopter_base,0.0245116353035,-0.0321829356253,-0.0202000141144,-0.0573371201754,0.152397125959,-0.00341903744265
1536680816866116572,2315,1536680816858925116,Quadricopter_base,0.0269707739353,-0.0228554196656,-0.0277626514435,0.10147920996,0.0370647720993,-0.0102624502033
1536680816898336036,2316,1536680816891059115,Quadricopter_base,0.0324430763721,-0.015433030203,-0.0301671028137,0.0713323205709,-0.0703917518258,-0.0138972494751
1536680816933698774,2317,1536680816926626332,Quadricopter_base,0.0366152487695,-0.0121928993613,-0.0351238250732,-0.0895632356405,-0.000777709763497,-0.0165981780738
1536680816967193228,2318,1536680816959934351,Quadricopter_base,0.0399495661259,-0.00517086498439,-0.0348722934723,0.043883472681,-0.0361855924129,-0.0177823808044
1536680817004184687,2319,1536680816996131702,Quadricopter_base,0.0427272208035,0.00206928234547,-0.0341784954071,0.179871350527,-0.0766093358397,-0.0171989034861
1536680817037225021,2320,1536680817029256695,Quadricopter_base,0.0460489802063,0.000988165847957,-0.0314009189606,-0.11954151839,-0.0499959588051,-0.013405685313
1536680817068588426,2321,1536680817061468468,Quadricopter_base,0.0471679419279,0.000982412137091,-0.0307607650757,-0.235351607203,-0.00444195559248,-0.00716639915481
1536680817099112838,2322,1536680817091620372,Quadricopter_base,0.0449264273047,0.00975437927991,-0.0170516967773,0.047335729003,0.0110565414652,-0.00639112712815
1536680817137263789,2323,1536680817129675215,Quadricopter_base,0.0433305241168,0.0188007056713,-0.00550508499146,0.169930815697,-0.0250289868563,-0.0063482131809
1536680817171284912,2324,1536680817163832660,Quadricopter_base,0.0439817532897,0.0210152026266,-0.0041401386261,-0.0689658597112,-0.0688217580318,-0.00602940190583
1536680817204172403,2325,1536680817196511622,Quadricopter_base,0.0424182452261,0.0237350091338,-0.0118589401245,-0.11737768352,-0.0476996563375,-0.00321670551784
1536680817235793446,2326,1536680817228221896,Quadricopter_base,0.0375501103699,0.031960632652,-0.0114822387695,0.16832433641,-0.0418832972646,-0.000118783616927
1536680817267236543,2327,1536680817259229531,Quadricopter_base,0.0336257405579,0.0351837202907,-0.000853538513184,0.0954667404294,-0.0668285563588,-0.00506757106632
1536680817299266337,2328,1536680817291655521,Quadricopter_base,0.0299756173044,0.0326694995165,0.00767946243286,-0.178089007735,-0.0673782974482,-0.00948722660542
1536680817331634160,2329,1536680817323687968,Quadricopter_base,0.022405937314,0.0349001996219,0.00746250152588,-0.0609829351306,-0.0196581743658,-0.0101679395884
1536680817364613661,2330,1536680817356957629,Quadricopter_base,0.0125590944663,0.0414888374507,0.00956177711487,0.229215174913,-0.00213629519567,-0.00654703425243
1536680817398303226,2331,1536680817390605734,Quadricopter_base,0.00478909816593,0.0412527993321,0.0130259990692,0.114833876491,0.0155884604901,-0.00487193278968
1536680817432544703,2332,1536680817424051390,Quadricopter_base,0.000122901998111,0.0350475385785,0.0140118598938,-0.216931462288,-0.0276910346001,-0.0128902383149
1536680817471284500,2333,1536680817462786235,Quadricopter_base,-0.00706654461101,0.034625723958,0.0166058540344,-0.154045835137,-0.048356987536,-0.0125007247552
1536680817504371014,2334,1536680817496819371,Quadricopter_base,-0.0181944277138,0.0406965613365,0.0316023826599,0.148999556899,-0.0395655110478,-0.00419729016721
1536680817534763565,2335,1536680817527584235,Quadricopter_base,-0.029644774273,0.0433206148446,0.0355529785156,0.219397187233,0.0211856551468,0.000820225570351
1536680817564601502,2336,1536680817557361039,Quadricopter_base,-0.0386279299855,0.0393755584955,0.0379991531372,0.101008996367,0.0570875927806,-0.00010176088108
1536680817596161891,2337,1536680817589012795,Quadricopter_base,-0.0444314777851,0.0313500538468,0.0316774845123,-0.132532417774,0.050436809659,-0.00451014563441
1536680817625464523,2338,1536680817617900634,Quadricopter_base,-0.0494307279587,0.0279730819166,0.0226604938507,-0.0702531114221,-0.0371864251792,-0.00694931857288
1536680817656237832,2339,1536680817648911927,Quadricopter_base,-0.0565483644605,0.0273052230477,0.0146508216858,0.0734113156796,-0.0264212973416,-0.00896500982344
1536680817686604353,2340,1536680817679175458,Quadricopter_base,-0.0651958882809,0.0217488352209,0.0149047374725,-0.114236481488,0.171036332846,-0.00966822169721
1536680817716080180,2341,1536680817708621024,Quadricopter_base,-0.0715405344963,0.0208397191018,0.0174295902252,-0.0497503727674,0.212664157152,-0.00770047213882
1536680817746913658,2342,1536680817739549340,Quadricopter_base,-0.07122656703,0.0265393536538,0.0201320648193,0.185219809413,-0.0562459155917,-0.00494973734021
1536680817777700179,2343,1536680817769655348,Quadricopter_base,-0.0685425549746,0.0265961028636,0.0183320045471,0.0527521595359,-0.217169761658,-0.000759078888223
1536680817811047674,2344,1536680817803473267,Quadricopter_base,-0.072439096868,0.0202704593539,0.0142693519592,-0.163174301386,0.0324640199542,-0.00248309969902
1536680817841828496,2345,1536680817834360664,Quadricopter_base,-0.0795711129904,0.0187879446894,0.00730514526367,-0.0263521894813,0.242386996746,-0.00261866953224
1536680817871589060,2346,1536680817864323756,Quadricopter_base,-0.0802761539817,0.0232875142246,0.0106728076935,0.222835987806,0.0691637024283,-0.00251762359403
1536680817903557778,2347,1536680817896461032,Quadricopter_base,-0.0758393630385,0.0216450188309,0.0118374824524,0.0458804555237,-0.039004240185,-0.00474686222151
1536680817934424673,2348,1536680817927252850,Quadricopter_base,-0.0727637782693,0.0154407229275,0.00925660133362,-0.191999807954,0.117336452007,-0.00552374357358
1536680817964506849,2349,1536680817957279682,Quadricopter_base,-0.0691330954432,0.0156448949128,-1.90734717762e-05,-0.0982775241137,0.132173359394,-0.00958464294672
1536680818002865729,2350,1536680817995422766,Quadricopter_base,-0.0634029209614,0.0229195579886,-0.00721335411072,0.209176748991,0.0394213609397,-0.0117745622993
1536680818040264883,2351,1536680818032642081,Quadricopter_base,-0.0546645224094,0.0257652997971,-0.0185596942902,0.214051678777,-0.0103175407276,-0.00587037857622
1536680818079435955,2352,1536680818071949172,Quadricopter_base,-0.0428508445621,0.0205196030438,-0.0141215324402,-0.0560792908072,-0.0221844222397,0.00242810649797
1536680818110102961,2353,1536680818102851354,Quadricopter_base,-0.0326358042657,0.0161353033036,-0.0122308731079,-0.085182890296,0.0352323763072,0.00424215383828
1536680818145960243,2354,1536680818138720774,Quadricopter_base,-0.0227628611028,0.0157429911196,-0.0107085704803,0.0619549900293,0.0199693888426,-0.00269170827232
1536680818178083058,2355,1536680818170947770,Quadricopter_base,-0.0106954453513,0.0137493629009,-0.0040328502655,0.00823357980698,-0.0588344857097,-0.00970724411309
1536680818210455343,2356,1536680818203364398,Quadricopter_base,0.000222179107368,0.0103950919583,-0.0028669834137,-0.0612380169332,-0.0623858384788,-0.00806074682623
1536680818242302363,2357,1536680818234979255,Quadricopter_base,0.00764321815223,0.00858107209206,5.96046484134e-05,0.0414073616266,0.0443948656321,-0.00497878948227
1536680818274825709,2358,1536680818267675191,Quadricopter_base,0.0164052117616,0.00563138118014,0.0107264518738,0.0136874420568,0.0767562687397,-0.00236187502742
1536680818306410448,2359,1536680818299058683,Quadricopter_base,0.0306262280792,0.00177577696741,0.0173330307007,-0.197971016169,-0.18301153183,-0.00116093200631
1536680818339314873,2360,1536680818331983672,Quadricopter_base,0.0419545024633,0.00196830835193,0.0158703327179,-0.228895559907,-0.472715198994,-0.00144896353595
1536680818371128016,2361,1536680818363923001,Quadricopter_base,0.0401009060442,0.00469747092575,0.00508189201355,-0.110166549683,-0.4797052145,0.00460319174454
1536680818404101293,2362,1536680818396667656,Quadricopter_base,0.0237576868385,0.00526653323323,-0.00145196914673,-0.0867847651243,-0.265899240971,-0.000764507451095
1536680818434641039,2363,1536680818427667054,Quadricopter_base,0.000417771778302,0.00506204320118,-0.0114691257477,-0.115279406309,-0.186459451914,-0.00890123657882
1536680818466772081,2364,1536680818459767131,Quadricopter_base,-0.0268695559353,0.00684340950102,-0.0212609767914,-0.0850442647934,-0.319571495056,-0.00479717087001
1536680818498922458,2365,1536680818491929046,Quadricopter_base,-0.0609980411828,0.00795819610357,-0.0354564189911,-0.0958546325564,-0.382472604513,-0.0055410922505
1536680818530632529,2366,1536680818523585840,Quadricopter_base,-0.106696605682,0.00723432004452,-0.0450253486633,-0.114245638251,-0.242637008429,-0.010916701518
1536680818562065729,2367,1536680818555111173,Quadricopter_base,-0.16009926796,0.00751340389252,-0.0511121749878,-0.0455623790622,-0.16480179131,-0.00619390700012
1536680818596065315,2368,1536680818589079168,Quadricopter_base,-0.218669950962,0.00713929533958,-0.0475549697876,-0.0700665414333,-0.176456287503,-0.00853788666427
1536680818626135630,2369,1536680818619174840,Quadricopter_base,-0.281789749861,0.00598978996277,-0.0379514694214,-0.152783378959,-0.227298572659,-0.0165199059993
1536680818659356015,2370,1536680818652361799,Quadricopter_base,-0.351994037628,0.00769811868668,-0.0241684988141,-0.0723519846797,-0.292881190777,-0.00236461032182
1536680818690793140,2371,1536680818683721584,Quadricopter_base,-0.429138481617,0.00929902493954,-0.0213909130543,0.0141357239336,-0.222600415349,0.0056301523
1536680818722648218,2372,1536680818715515820,Quadricopter_base,-0.512311398983,0.0071843713522,-0.0213694535196,-0.0320798456669,-0.10027398169,-0.0130463000387
1536680818755244802,2373,1536680818748209524,Quadricopter_base,-0.596605360508,0.00358249270357,-0.0279629249126,-0.111447758973,-0.0923147946596,-0.0285827573389
1536680818786790052,2374,1536680818779808635,Quadricopter_base,-0.685527682304,0.00112415850163,-0.0302255265415,-0.132688999176,-0.0281570069492,-0.0320144295692
1536680818819075494,2375,1536680818812084013,Quadricopter_base,-0.779115855694,0.00261580944061,-0.0249338261783,-0.0454049706459,0.0763583779335,-0.0176490675658
1536680818850217667,2376,1536680818843192187,Quadricopter_base,-0.870961010456,0.0103700757027,-0.0253391340375,0.188293516636,0.0575145483017,0.0285163316876
1536680818882107527,2377,1536680818875035013,Quadricopter_base,-0.959823250771,0.0139995217323,-0.0322985723615,0.199846565723,0.168545365334,0.020799068734
1536680818914449903,2378,1536680818907303810,Quadricopter_base,-1.045337677,0.00959184765816,-0.0283873062581,0.00353933591396,0.294561892748,-0.0288691595197
1536680818946358569,2379,1536680818939269471,Quadricopter_base,-1.12259674072,0.00609230995178,-0.0216794069856,-0.0916823595762,0.166220664978,-0.0434706807137
1536680818979239541,2380,1536680818971947504,Quadricopter_base,-1.19667088985,0.00997248291969,-0.0107598211616,0.0651293545961,0.0546207800508,-0.0115589182824
1536680819011229058,2381,1536680819003976782,Quadricopter_base,-1.2707849741,0.0161480605602,-0.00216485117562,0.253141671419,0.185940951109,0.0131556075066
1536680819042211730,2382,1536680819035050098,Quadricopter_base,-1.34023833275,0.0144610106945,0.00699519086629,0.128795176744,0.422084927559,-0.0119697107002
1536680819074699522,2383,1536680819067559352,Quadricopter_base,-1.3967666626,0.0117031335831,0.0116908624768,0.00488645769656,0.338827371597,-0.019791116938
1536680819107019212,2384,1536680819099873350,Quadricopter_base,-1.44371843338,0.0162490308285,0.0194823630154,0.171348229051,0.125122874975,0.0105351777747
1536680819138814149,2385,1536680819131501192,Quadricopter_base,-1.48659694195,0.0198703110218,0.0149917639792,0.292020231485,0.189016327262,0.0230201371014
1536680819170713031,2386,1536680819163540501,Quadricopter_base,-1.52383852005,0.0143277645111,0.0165641270578,0.111563123763,0.351619958878,0.00775615591556
1536680819203393372,2387,1536680819195914796,Quadricopter_base,-1.55178976059,0.00736427307129,0.0239002741873,0.00726599665359,0.319528877735,-0.00392610672861
1536680819240594164,2388,1536680819233365978,Quadricopter_base,-1.57070171833,0.00493270158768,0.0313162840903,0.141938924789,0.149053707719,-0.0074425637722
1536680819283093398,2389,1536680819275703394,Quadricopter_base,-1.58460354805,0.000601232051849,0.0304996967316,0.169519022107,0.115175686777,-0.0109464619309
1536680819320412851,2390,1536680819313059534,Quadricopter_base,-1.5949420929,-0.0076220035553,0.0247716903687,0.137903407216,0.19397315383,-0.0121698295698
1536680819358927946,2391,1536680819351553145,Quadricopter_base,-1.60019052029,-0.0181844830513,0.0196230430156,0.0906123071909,0.253125548363,-0.0112513266504
1536680819400049278,2392,1536680819392805663,Quadricopter_base,-1.59836041927,-0.0288294255733,0.0178849697113,0.0485447831452,0.230071976781,-0.00758774345741
1536680819443486214,2393,1536680819435911941,Quadricopter_base,-1.59013438225,-0.0381949543953,0.0178194046021,0.0169576462358,0.167821034789,-0.00173591636121
1536680819475804997,2394,1536680819468292611,Quadricopter_base,-1.57767450809,-0.0463533401489,0.0264966487885,0.0261307507753,0.166568934917,0.000600561790634
1536680819508141635,2395,1536680819500646803,Quadricopter_base,-1.56142866611,-0.0533591806889,0.0270605180413,0.0243112966418,0.163012310863,0.00315506360494
1536680819540713396,2396,1536680819533112106,Quadricopter_base,-1.54148471355,-0.0590598285198,0.030997985974,0.0847748816013,0.190129846334,0.00340290553868
1536680819571798733,2397,1536680819564279547,Quadricopter_base,-1.51636600494,-0.0652344226837,0.0366759300232,0.0820032507181,0.187279805541,0.0026280793827
1536680819609661635,2398,1536680819601986518,Quadricopter_base,-1.48466563225,-0.0722015500069,0.0461637936532,-0.0259936973453,0.121331259608,0.00667606899515
1536680819645300746,2399,1536680819637906824,Quadricopter_base,-1.45072221756,-0.0774961709976,0.0402784533799,-0.0680017694831,0.0605509765446,0.00469007249922
1536680819677958094,2400,1536680819670477945,Quadricopter_base,-1.41679859161,-0.0802017450333,0.0301992818713,-0.00173059012741,0.087406553328,0.00260094506666
1536680819710901679,2401,1536680819703462750,Quadricopter_base,-1.38108706474,-0.0820802152157,0.0199270285666,-0.00511773955077,0.100466161966,0.00706513598561
1536680819747978346,2402,1536680819740762781,Quadricopter_base,-1.34209084511,-0.0831755399704,0.0103151779622,-0.0753030106425,0.0384137704968,0.00995200313628
1536680819779415101,2403,1536680819772004636,Quadricopter_base,-1.30273318291,-0.0824286341667,0.00558257196099,-0.0271134171635,0.0422590598464,-0.00159475661349
1536680819811770986,2404,1536680819804302212,Quadricopter_base,-1.26289367676,-0.0801083147526,0.00373841635883,0.129853129387,0.0378422886133,-0.0205135494471
1536680819842742039,2405,1536680819835350041,Quadricopter_base,-1.22115516663,-0.080092549324,-0.00115990149789,0.155074581504,0.0125926630571,-0.0208383724093
1536680819875479896,2406,1536680819867996634,Quadricopter_base,-1.17745006084,-0.0847590863705,-0.0036084742751,-0.0352627076209,0.0677477046847,0.000574315839913
1536680819907739370,2407,1536680819900340711,Quadricopter_base,-1.13237798214,-0.0882494151592,-0.0114893931895,-0.13041163981,0.0393566526473,0.00908023957163
1536680819940306365,2408,1536680819933038443,Quadricopter_base,-1.0868833065,-0.0874852240086,-0.0137031190097,-0.0219731852412,-0.0102663803846,-0.00257277907804
1536680819973400350,2409,1536680819966130867,Quadricopter_base,-1.04166579247,-0.0856930613518,-0.0136697320268,0.0699782669544,-0.0359827652574,-0.0108863925561
1536680820004302309,2410,1536680819996835221,Quadricopter_base,-0.996031761169,-0.0867660343647,-0.00787615031004,-0.0879911407828,0.00440001441166,0.0105614578351
1536680820047084326,2411,1536680820039844797,Quadricopter_base,-0.951769471169,-0.0862562358379,-0.0133752869442,-0.191385090351,0.00785977486521,0.0249212644994
1536680820078291573,2412,1536680820071051990,Quadricopter_base,-0.908042609692,-0.0795212835073,-0.0205039940774,-0.0192836094648,-0.151977270842,0.00322890281677
1536680820109816949,2413,1536680820102477182,Quadricopter_base,-0.867375791073,-0.0733351558447,-0.0222027301788,0.0345609560609,-0.179501205683,-0.00454049743712
1536680820142174201,2414,1536680820134834025,Quadricopter_base,-0.830034613609,-0.0706562697887,-0.0134503757581,-0.0955449715257,-0.119969762862,0.00910868495703
1536680820173858276,2415,1536680820166547748,Quadricopter_base,-0.796012878418,-0.066452473402,-0.0132620343938,-0.0786084532738,-0.197046533227,0.00629497691989
1536680820209990057,2416,1536680820202153581,Quadricopter_base,-0.768583834171,-0.0619730055332,-0.0167310237885,-0.00569846015424,-0.130408361554,-0.00213757134043
1536680820242155064,2417,1536680820234534099,Quadricopter_base,-0.743931412697,-0.0595107674599,-0.0197994727641,-0.0891152620316,-0.107250481844,-0.001763275126
1536680820272158528,2418,1536680820264790939,Quadricopter_base,-0.721659839153,-0.056613445282,-0.0219070911407,-0.177941843867,-0.153661981225,-0.00110583403148
1536680820302919108,2419,1536680820295765039,Quadricopter_base,-0.704757511616,-0.0517087131739,-0.0234878063202,-0.22320947051,-0.101640447974,-0.00176910834853
1536680820334678346,2420,1536680820327574568,Quadricopter_base,-0.69218993187,-0.0403575599194,-0.0139367580414,-0.0411869511008,-0.14147529006,-0.00729224644601
1536680820366419285,2421,1536680820359100186,Quadricopter_base,-0.683291375637,-0.0270714610815,-0.00858664512634,0.165750145912,-0.213343411684,-0.00934517756104
1536680820397295317,2422,1536680820390032362,Quadricopter_base,-0.677481710911,-0.0224565118551,-0.00390291190706,-0.0879668816924,-0.17011487484,-0.00634238542989
1536680820429811104,2423,1536680820422380703,Quadricopter_base,-0.675337791443,-0.0201006680727,-0.00478148413822,-0.355958372355,-0.157645955682,-0.00525373918936
1536680820460774056,2424,1536680820453523156,Quadricopter_base,-0.6816650033,-0.00724889338017,-0.00484466459602,-0.0441981293261,-0.128909021616,0.00116732961033
1536680820493215155,2425,1536680820485870370,Quadricopter_base,-0.692878484726,0.00745849311352,-0.00342726777308,0.182095244527,-0.0571868233383,0.00144953816198
1536680820526358551,2426,1536680820518848999,Quadricopter_base,-0.702607095242,0.0148896723986,0.00621676258743,-0.0469525940716,-0.0973027348518,-0.0066448757425
1536680820559729746,2427,1536680820552566013,Quadricopter_base,-0.713613390923,0.0207419097424,0.0171148739755,-0.242839023471,-0.158668577671,-0.0102080767974
1536680820592467692,2428,1536680820585144994,Quadricopter_base,-0.732101917267,0.0320409834385,0.0226521454751,-0.107711717486,-0.0531755946577,-0.00675360113382
1536680820623068082,2429,1536680820615687367,Quadricopter_base,-0.754429161549,0.0482062399387,0.0278639812022,0.166456565261,0.00677489256486,-0.00186376250349
1536680820653693741,2430,1536680820646405041,Quadricopter_base,-0.773710489273,0.0604043602943,0.0321781635284,0.14062923193,-0.108836434782,-0.0043902117759
1536680820685039556,2431,1536680820677887138,Quadricopter_base,-0.792361617088,0.0639311075211,0.0272405147552,-0.214840933681,-0.123963773251,-0.0209605395794
1536680820717231183,2432,1536680820710119883,Quadricopter_base,-0.816361427307,0.0730226039886,0.0285398960114,-0.115172341466,-0.141951948404,-0.0113823395222
1536680820749716697,2433,1536680820742703047,Quadricopter_base,-0.845667123795,0.0898196399212,0.0261807497591,0.365564644337,-0.18651394546,0.0201999470592
1536680820781836387,2434,1536680820774703802,Quadricopter_base,-0.876828789711,0.0939557552338,0.0251245498657,0.229847192764,-0.0766289383173,0.00530397705734
1536680820814211011,2435,1536680820807139930,Quadricopter_base,-0.907371520996,0.0854733884335,0.0220382157713,-0.247442126274,0.0746153220534,-0.025707103312
1536680820846791171,2436,1536680820839689893,Quadricopter_base,-0.93969398737,0.0855024158955,0.0202333908528,-0.103679850698,0.139664053917,-0.0132421320304
1536680820878319393,2437,1536680820871218663,Quadricopter_base,-0.969772160053,0.0951506495476,0.0167620182037,0.317443370819,0.00698382779956,0.0141401160508
1536680820909556716,2438,1536680820902168365,Quadricopter_base,-0.995361089706,0.0959493517876,0.00974059198052,0.195707917213,-0.071761675179,0.00596573017538
1536680820949324511,2439,1536680820941968922,Quadricopter_base,-1.02070462704,0.0864818990231,0.00435948325321,-0.157810360193,0.0194353498518,-0.0188769549131
1536680820989390633,2440,1536680820982146628,Quadricopter_base,-1.04828321934,0.0823911130428,0.00970602221787,-0.0458888635039,0.0445167012513,-0.0115252668038
1536680821021650544,2441,1536680821014337254,Quadricopter_base,-1.07651078701,0.0832571089268,0.0102579565719,0.217673644423,0.0952299535275,0.00606301613152
1536680821053800269,2442,1536680821046313085,Quadricopter_base,-1.10136902332,0.0783367156982,0.00912308786064,0.148568987846,0.20494826138,0.0023113260977
1536680821086342354,2443,1536680821078823022,Quadricopter_base,-1.11927580833,0.0688002109528,0.0109899016097,-0.0927641615272,0.192260235548,-0.00681279134005
1536680821118927175,2444,1536680821111633060,Quadricopter_base,-1.13221216202,0.064422249794,0.0144088258967,-0.0682469084859,0.0553668998182,-0.00072540139081
1536680821150516888,2445,1536680821143253254,Quadricopter_base,-1.14402294159,0.0659656226635,0.00753998663276,0.204191878438,-0.071616359055,0.00753126852214
1536680821181625160,2446,1536680821174184763,Quadricopter_base,-1.15717351437,0.0611738562584,0.000965597457252,0.203897193074,0.0642515048385,0.00204774341546
1536680821214502065,2447,1536680821207337150,Quadricopter_base,-1.16778826714,0.0482386946678,-0.00602602912113,-0.0599172376096,0.228204101324,-0.00707402126864
1536680821257111190,2448,1536680821249670685,Quadricopter_base,-1.17279791832,0.0399801433086,-0.000526904885191,0.0283791031688,0.107758074999,-0.0109621174634
1536680821300033368,2449,1536680821292703654,Quadricopter_base,-1.17418789864,0.0333273112774,0.00938892364502,0.116447046399,-0.0225681811571,-0.0129886008799
1536680821341369882,2450,1536680821334124604,Quadricopter_base,-1.17538607121,0.0225265026093,0.0124084949493,0.0132620166987,0.0487977080047,-0.0100031811744
1536680821374604807,2451,1536680821367290401,Quadricopter_base,-1.1761020422,0.0111628174782,0.0102651109919,-0.0283283777535,0.135721847415,-0.00762290600687
1536680821411184697,2452,1536680821404045671,Quadricopter_base,-1.17439866066,0.000987589359283,0.0164973735809,-0.0636037811637,0.201584115624,-0.00550367962569
1536680821443933095,2453,1536680821436654305,Quadricopter_base,-1.16857814789,-0.00434303283691,0.0203549843282,0.0644614398479,0.140917569399,-0.00767812505364
1536680821476356333,2454,1536680821469220687,Quadricopter_base,-1.1578117609,-0.00896939635277,0.0148725518957,0.101947851479,0.0125420168042,-0.0116044655442
1536680821513616301,2455,1536680821506289007,Quadricopter_base,-1.14548325539,-0.0162552893162,0.00523567106575,0.0314187593758,-0.0145792784169,-0.00951971672475
1536680821548785247,2456,1536680821541532248,Quadricopter_base,-1.13286221027,-0.0242585837841,0.00540971709415,0.0330478362739,-0.0251861363649,-0.00628720596433
1536680821581954403,2457,1536680821574507353,Quadricopter_base,-1.12152707577,-0.03279748559,0.00340700149536,0.0744305178523,0.0436167344451,0.000220231318963
1536680821614417953,2458,1536680821607119403,Quadricopter_base,-1.10860145092,-0.0430528521538,-0.00227213092148,0.041054956615,0.0595278702676,0.0009343897691
1536680821647185782,2459,1536680821639724569,Quadricopter_base,-1.09346318245,-0.0545715689659,-0.00455736834556,-0.049059458077,0.0553394444287,0.00235381140374
1536680821679425318,2460,1536680821672047043,Quadricopter_base,-1.07754349709,-0.0644918680191,0.00253677554429,-0.0360731594265,0.0815053135157,0.00462808925658
1536680821711175552,2461,1536680821703771467,Quadricopter_base,-1.06007313728,-0.0724534988403,0.0033628931269,-0.000403388228733,0.0487384013832,-4.25765438195e-06
1536680821743477239,2462,1536680821735991028,Quadricopter_base,-1.04121863842,-0.0801038444042,-0.00156521913595,-0.0361172892153,0.0194787532091,-0.000873410550412
1536680821776691937,2463,1536680821769326890,Quadricopter_base,-1.02145469189,-0.0867941081524,-0.00451684184372,-0.0782268419862,-0.036342356354,0.00230145035312
1536680821816573266,2464,1536680821809278849,Quadricopter_base,-1.00295364857,-0.0917292833328,-0.00302791642025,-0.0807737857103,-0.0484337098897,0.00831850245595
1536680821853885469,2465,1536680821846244150,Quadricopter_base,-0.986997723579,-0.0947810560465,0.00238776789047,-0.0186832584441,0.00259442697279,0.0118355490267
1536680821885302694,2466,1536680821877908568,Quadricopter_base,-0.970681905746,-0.0979494154453,0.0069725504145,-0.0639850050211,-0.019694942981,0.00768559798598
1536680821919646337,2467,1536680821912256778,Quadricopter_base,-0.954885363579,-0.100659444928,0.00023007512209,-0.16418376565,-0.0608472488821,0.00579115981236
1536680821952664667,2468,1536680821945181777,Quadricopter_base,-0.942897200584,-0.0997362434864,0.00382780935615,-0.103001877666,0.0240638144314,0.00737569201738
1536680821988792746,2469,1536680821981346792,Quadricopter_base,-0.932885706425,-0.0955054163933,0.00860452372581,0.0352462902665,0.134435221553,0.00445220479742
1536680822019978490,2470,1536680822012611438,Quadricopter_base,-0.918820977211,-0.0904755890369,0.0070166606456,0.0498428195715,0.0605901144445,0.00469856243581
1536680822052096683,2471,1536680822044933612,Quadricopter_base,-0.90135383606,-0.0865142792463,0.00889897253364,-0.0598237849772,-0.0414341911674,0.01053131558
1536680822084600665,2472,1536680822077322947,Quadricopter_base,-0.885572969913,-0.0828190892935,0.00621318863705,-0.160483330488,-0.000885074143298,0.0101204756647
1536680822122572074,2473,1536680822115186745,Quadricopter_base,-0.872255504131,-0.0754061639309,-0.00651478767395,-0.105498768389,0.0494438037276,0.00452808104455
1536680822158119152,2474,1536680822150714726,Quadricopter_base,-0.858199000359,-0.0638574659824,-0.019059183076,0.00572932977229,-0.0368787012994,0.00114973564632
1536680822191617821,2475,1536680822184118366,Quadricopter_base,-0.844078063965,-0.0518448799849,-0.0251948833466,0.0697358623147,-0.12492570281,-0.00230607390404
1536680822225543706,2476,1536680822218074994,Quadricopter_base,-0.831540465355,-0.0419923365116,-0.019543170929,0.0951858982444,-0.172608286142,-0.00558979716152
1536680822258787131,2477,1536680822250970218,Quadricopter_base,-0.822615146637,-0.0363547950983,-0.0198531150818,0.0587981268764,-0.121929183602,-0.00337003846653
1536680822292268274,2478,1536680822284235384,Quadricopter_base,-0.816327095032,-0.0339376181364,-0.0144243231043,0.00558854313567,-0.0679644197226,-0.00156837515533
1536680822325583592,2479,1536680822317974986,Quadricopter_base,-0.812029421329,-0.0326197594404,-0.0110065937042,-0.0140226772055,-0.0119226649404,-0.00203308369964
1536680822358561094,2480,1536680822351042984,Quadricopter_base,-0.807906389236,-0.0306122004986,-0.0148367881775,0.017266554758,-0.0506198108196,-0.00214769132435
1536680822391414836,2481,1536680822383934460,Quadricopter_base,-0.803781867027,-0.0293898135424,-0.0211656093597,3.4031807445e-05,-0.138958588243,-0.00509803416207
1536680822422465214,2482,1536680822415072363,Quadricopter_base,-0.802684187889,-0.029873996973,-0.0238537788391,-0.0290456525981,-0.143921688199,-0.0105790179223
1536680822454589086,2483,1536680822447188185,Quadricopter_base,-0.805722951889,-0.0316227078438,-0.0246608257294,-0.0738259255886,-0.0679441988468,-0.0081914588809
1536680822493944422,2484,1536680822486624240,Quadricopter_base,-0.811217904091,-0.031849578023,-0.0154149541631,-0.0534907393157,-0.0673394352198,-0.000963631086051
1536680822538039373,2485,1536680822530701924,Quadricopter_base,-0.818201959133,-0.0307798236609,-0.00972628593445,-0.0148807223886,-0.1237289235,0.000496686901897
1536680822580484382,2486,1536680822572686744,Quadricopter_base,-0.827982604504,-0.0315514802933,-0.00454664137214,-0.090788833797,-0.11615113914,-0.00589882768691
1536680822621031006,2487,1536680822613682847,Quadricopter_base,-0.841151952744,-0.0325234532356,-0.00278950016946,-0.186372473836,-0.0746347755194,-0.00855720415711
1536680822659118376,2488,1536680822651665577,Quadricopter_base,-0.857800364494,-0.0281156897545,0.00169754226226,-0.0837577879429,-0.123866610229,0.00243516382761
1536680822691121972,2489,1536680822683830967,Quadricopter_base,-0.879086315632,-0.0203565359116,0.00655531743541,0.138852640986,-0.10767865926,0.00929866544902
1536680822723631070,2490,1536680822716460442,Quadricopter_base,-0.902422845364,-0.0186624526978,0.00708461087197,0.0552643686533,0.0151266111061,-0.00240095681511
1536680822756268066,2491,1536680822749096975,Quadricopter_base,-0.92340862751,-0.0205252766609,-0.00719189690426,-0.133184462786,0.0155144231394,-0.012516932562
1536680822793664141,2492,1536680822786193422,Quadricopter_base,-0.945705652237,-0.0173785984516,-0.0159358959645,-0.0185006279498,-0.00928498338908,-0.00479737017304
1536680822829643625,2493,1536680822822387821,Quadricopter_base,-0.969932854176,-0.0125756859779,-0.0178003329784,0.120465293527,0.0516512542963,-0.00112943339627
1536680822861015521,2494,1536680822853794945,Quadricopter_base,-0.991605103016,-0.0110985040665,-0.0162947177887,0.0526202060282,0.0440905615687,-0.00673085497692
1536680822895847235,2495,1536680822888528946,Quadricopter_base,-1.01133823395,-0.0108997821808,-0.0156557541341,-0.0260582603514,0.0288049317896,-0.00145633122884
1536680822929265780,2496,1536680822921612718,Quadricopter_base,-1.0312640667,-0.00856879353523,-0.0127518195659,0.0710174292326,0.0415113270283,0.00432021636516
1536680822962822239,2497,1536680822955096017,Quadricopter_base,-1.04866969585,-0.00740566849709,-0.015035870485,0.0751813128591,-0.029186392203,0.00066075072391
1536680822995602561,2498,1536680822988272374,Quadricopter_base,-1.06581819057,-0.0104579627514,-0.0139522571117,-0.102411322296,0.0028600662481,-0.00303477770649
1536680823029433049,2499,1536680823021963835,Quadricopter_base,-1.08558034897,-0.0104866921902,-0.0173115730286,-0.0332486107945,0.155337110162,0.00383459590375
1536680823062121959,2500,1536680823054882810,Quadricopter_base,-1.10186684132,-0.00572377443314,-0.0220203418285,0.167710319161,0.069703862071,0.00817948579788
1536680823095724468,2501,1536680823088307149,Quadricopter_base,-1.11445713043,-0.00592043995857,-0.0255048274994,0.0412607230246,0.0525726936758,0.000644623010885
1536680823133543709,2502,1536680823126296397,Quadricopter_base,-1.12647926807,-0.0086142718792,-0.0161445140839,-0.0870994180441,0.165043741465,-0.00361708691344
1536680823165344009,2503,1536680823158016435,Quadricopter_base,-1.13536822796,-0.00548967719078,-0.016633272171,0.0860216766596,0.103120289743,0.00100510613993
1536680823198778086,2504,1536680823191506661,Quadricopter_base,-1.13978993893,-0.00173416733742,-0.0179541110992,0.16010260582,-0.038135021925,0.00835388898849
1536680823236290381,2505,1536680823229045046,Quadricopter_base,-1.14380192757,-0.00528934597969,-0.0171792507172,-0.103536650538,0.0610258020461,0.00733096571639
1536680823268745910,2506,1536680823261396657,Quadricopter_base,-1.147783041,-0.00725868344307,-0.021425485611,-0.196086332202,0.143374308944,0.00442651612684
1536680823305685219,2507,1536680823298381088,Quadricopter_base,-1.15131306648,8.15689418232e-05,-0.0280523300171,0.130213245749,0.122546486557,0.00324101559818
1536680823340669104,2508,1536680823333235156,Quadricopter_base,-1.15144324303,0.00616317987442,-0.021026134491,0.209826216102,0.151934310794,0.00338025647216
1536680823373065346,2509,1536680823365873690,Quadricopter_base,-1.14486062527,0.00632268190384,-0.0198757648468,-0.0609722547233,0.112689465284,0.0102213975042
1536680823406489868,2510,1536680823399239239,Quadricopter_base,-1.13443315029,0.00854027271271,-0.0182294864208,-0.163470357656,-0.00306984223425,0.012438823469
1536680823439309523,2511,1536680823432092488,Quadricopter_base,-1.12676346302,0.0171203315258,-0.0155258169398,0.118405178189,-0.00388657185249,0.00596332829446
1536680823472027702,2512,1536680823464382884,Quadricopter_base,-1.11941313744,0.0224271714687,-0.0112533569336,0.148316040635,0.111542262137,0.00164240715094
1536680823506068355,2513,1536680823498697361,Quadricopter_base,-1.10792684555,0.0234794914722,-0.00849127955735,-0.0204697661102,0.144433140755,0.0042557939887
1536680823537946281,2514,1536680823530545283,Quadricopter_base,-1.09157073498,0.0266476869583,-0.00497341202572,-0.0368130281568,0.00400065258145,0.00115532614291
1536680823570767810,2515,1536680823563383026,Quadricopter_base,-1.0755636692,0.0316177904606,0.000766518583987,0.0613030865788,-0.0273076053709,-0.00477811507881
1536680823604858681,2516,1536680823597441342,Quadricopter_base,-1.06079053879,0.0351850688457,0.00981450080872,0.125958651304,0.0632896870375,-0.00401301961392
1536680823636867259,2517,1536680823629388148,Quadricopter_base,-1.0427955389,0.0361853539944,0.0121295452118,0.0456510894001,0.0175288040191,0.00559784565121
1536680823670859751,2518,1536680823663401097,Quadricopter_base,-1.02239906788,0.0360314548016,0.0137376803905,-0.072394490242,-0.085071362555,0.016584623605
1536680823709041599,2519,1536680823701827603,Quadricopter_base,-1.00567448139,0.0369855761528,0.0193083286285,-0.0308553725481,0.00589462229982,0.0194459110498
1536680823752662731,2520,1536680823745277656,Quadricopter_base,-0.992521882057,0.0394048988819,0.0260055027902,0.171325191855,0.252068221569,0.0124269966036
1536680823791015035,2521,1536680823783741599,Quadricopter_base,-0.97542232275,0.039188683033,0.0260400753468,0.250203192234,0.517017126083,0.00716969463974
1536680823824791058,2522,1536680823817196344,Quadricopter_base,-0.943802893162,0.0372607409954,0.0306892376393,0.271363049746,0.527933478355,-0.000386975938454
1536680823858477496,2523,1536680823850985587,Quadricopter_base,-0.896298527718,0.0337045490742,0.0295663010329,0.167434424162,0.371723353863,0.00657872343436
1536680823892014859,2524,1536680823884500809,Quadricopter_base,-0.836027920246,0.0287305414677,0.0314307324588,-0.0294128730893,0.263198584318,0.0231416411698
1536680823924937946,2525,1536680823917241508,Quadricopter_base,-0.76982998848,0.0279033482075,0.0323975197971,0.117422804236,0.160611331463,-0.00706505589187
1536680823957899576,2526,1536680823950486198,Quadricopter_base,-0.699871301651,0.0266415625811,0.0302588995546,0.292518049479,0.154904559255,-0.0386519357562
1536680823992132186,2527,1536680823984105529,Quadricopter_base,-0.624192118645,0.017910733819,0.0231277942657,-0.011699853465,0.245105102658,0.0110078789294
1536680824028901719,2528,1536680824021521233,Quadricopter_base,-0.542597472668,0.010829180479,0.0120234442875,-0.17170727253,0.223336830735,0.0344944261014
1536680824061074156,2529,1536680824053624572,Quadricopter_base,-0.4574444592,0.0124191939831,-0.00259994971566,0.140997976065,0.0400918349624,-0.0370202660561
1536680824093833853,2530,1536680824086251040,Quadricopter_base,-0.369323402643,0.0119697079062,-0.0142550533637,0.212171092629,-0.0118321795017,-0.0542146041989
1536680824131241868,2531,1536680824123877415,Quadricopter_base,-0.279410719872,0.00398351252079,-0.0257098656148,-0.0797966122627,0.0898235961795,0.00701510254294
1536680824164016660,2532,1536680824156671029,Quadricopter_base,-0.185404241085,-0.00171194598079,-0.0241208076477,-0.118046931922,0.0839761942625,0.0149117121473
1536680824196931180,2533,1536680824189543364,Quadricopter_base,-0.0905079990625,-0.00119573250413,-0.0287282485515,0.0800127983093,-0.105995312333,-0.0375199913979
1536680824233063454,2534,1536680824225805339,Quadricopter_base,0.0047199469991,-0.00460514053702,-0.0331842899323,-0.0831269025803,-0.232520073652,-0.0179322324693
1536680824269701386,2535,1536680824262285035,Quadricopter_base,0.0941197052598,-0.0117337759584,-0.0394809246063,-0.36550283432,-0.18799610436,0.0376829057932
1536680824301706440,2536,1536680824294372210,Quadricopter_base,0.176199793816,-0.00969297811389,-0.0406777858734,-0.174312084913,-0.236835986376,0.00340046104975
1536680824333579421,2537,1536680824326255131,Quadricopter_base,0.251520752907,-0.000790193618741,-0.0420439206064,0.177536845207,-0.389551579952,-0.0609829984605
1536680824365399599,2538,1536680824358138669,Quadricopter_base,0.318612217903,-0.00292623764835,-0.0402438640594,-0.0225689988583,-0.215816348791,-0.0250286646187
1536680824398946619,2539,1536680824391588800,Quadricopter_base,0.380268394947,-0.0112410783768,-0.0371611081064,-0.320877254009,-0.0522253885865,0.029313929379
1536680824431174319,2540,1536680824424035980,Quadricopter_base,0.440796464682,-0.00881598889828,-0.0279784183949,-0.133632481098,-0.347690820694,-0.00225348421372
1536680824463007019,2541,1536680824455685545,Quadricopter_base,0.49375885725,-0.00323310494423,-0.0245749931782,0.0187491327524,-0.611717879772,-0.0277803279459
1536680824495483927,2542,1536680824488211395,Quadricopter_base,0.529766976833,-0.00596363842487,-0.0242054481059,-0.0702877417207,-0.365048021078,-0.013725316152
1536680824527452570,2543,1536680824520037651,Quadricopter_base,0.553895175457,-0.0134905129671,-0.0248754043132,-0.209421753883,-0.0222160760313,0.00737621914595
1536680824559849722,2544,1536680824552635285,Quadricopter_base,0.576187968254,-0.0154990553856,-0.0283193588257,-0.150790929794,-0.102623313665,0.00957668665797
1536680824593527157,2545,1536680824585873026,Quadricopter_base,0.596453368664,-0.012120038271,-0.0234615802765,0.0182275753468,-0.292431145906,0.00117790466174
1536680824627052659,2546,1536680824619344622,Quadricopter_base,0.610180139542,-0.0123534649611,-0.0022482869681,-0.0260719824582,-0.246553435922,-0.00357493176125
1536680824669365504,2547,1536680824662167173,Quadricopter_base,0.6172965765,-0.0165652781725,0.0117492675781,-0.209838271141,-0.12786218524,-0.00450686179101
1536680824713120429,2548,1536680824705718908,Quadricopter_base,0.619022250175,-0.0166953802109,0.0259172916412,-0.171882584691,-0.110719174147,-0.000445849174866
1536680824756751224,2549,1536680824749408157,Quadricopter_base,0.617171227932,-0.0121897011995,0.0340330600739,-0.0203933008015,-0.210808962584,0.0096112433821
1536680824798160181,2550,1536680824790985802,Quadricopter_base,0.610326170921,-0.00823640823364,0.0367116928101,0.0665517225862,-0.25781005621,0.0167698990554
1536680824840913488,2551,1536680824833538060,Quadricopter_base,0.598290622234,-0.00828021764755,0.0322151221335,0.0544109232724,-0.240269392729,0.0153833869845
1536680824884953205,2552,1536680824877326502,Quadricopter_base,0.581870853901,-0.0123828798532,0.0249242782593,-0.0450714454055,-0.257481426001,0.0049387505278
1536680824918378865,2553,1536680824910834451,Quadricopter_base,0.558933734894,-0.0191642343998,0.0229299049824,-0.200373053551,-0.186062604189,-0.00999075733125
1536680824950441611,2554,1536680824943021430,Quadricopter_base,0.528580605984,-0.0229990333319,0.0242006834596,-0.170553907752,-0.0908221378922,-0.0119729759172
1536680824984911529,2555,1536680824977609119,Quadricopter_base,0.494657427073,-0.022093847394,0.0177073478699,0.00900604296476,-0.104369387031,0.000924992142245
1536680825017484557,2556,1536680825010274319,Quadricopter_base,0.457724511623,-0.022907525301,0.019588470459,-0.0268161594868,-0.0860448479652,-0.000478369009215
1536680825052833213,2557,1536680825045631351,Quadricopter_base,0.419415831566,-0.0255336165428,0.0142467021942,-0.201620638371,-0.0360929444432,-0.020329747349
1536680825086108854,2558,1536680825078821503,Quadricopter_base,0.377636998892,-0.023379907012,0.0152981244028,-0.164296552539,-0.0275576673448,-0.0160436667502
1536680825119216825,2559,1536680825112016027,Quadricopter_base,0.333288162947,-0.0156075879931,0.0137615185231,0.0904399827123,-0.0577993914485,0.0132209574804
1536680825150897958,2560,1536680825143846482,Quadricopter_base,0.288606703281,-0.011186465621,0.00710487226024,0.0446689799428,-0.0149291027337,0.00671269930899
1536680825183016673,2561,1536680825175745253,Quadricopter_base,0.245669230819,-0.0104345530272,0.000710487074684,-0.250817865133,-0.0553008541465,-0.0205545909703
1536680825214700545,2562,1536680825207464009,Quadricopter_base,0.199632048607,-0.00290823727846,-0.00129103881773,-0.165943130851,-0.175060331821,-0.00336447521113
1536680825247159536,2563,1536680825239938695,Quadricopter_base,0.144626379013,0.00980777293444,-0.00128149916418,0.212797015905,-0.0194457732141,0.0258102677763
1536680825279428934,2564,1536680825272183498,Quadricopter_base,0.0884410142899,0.0173732303083,0.0056326398626,0.272743582726,0.143990278244,0.01533921808
1536680825311189676,2565,1536680825303892667,Quadricopter_base,0.0401698835194,0.0169003363699,0.0129091739655,-0.0617699101567,0.0733448639512,-0.0192590411752
1536680825343371776,2566,1536680825336052448,Quadricopter_base,-0.00474991928786,0.0182475727051,0.016576051712,-0.148317277431,-0.0617756098509,-0.0273378044367
1536680825380038423,2567,1536680825372811167,Quadricopter_base,-0.0533892326057,0.0247828308493,0.0103259086609,0.106830142438,0.0110167656094,-0.00327759236097
1536680825412363583,2568,1536680825405206510,Quadricopter_base,-0.103900909424,0.0285371057689,0.0106906890869,0.163927152753,0.221104294062,-0.00376134505495
1536680825444453860,2569,1536680825437292023,Quadricopter_base,-0.146454244852,0.029373023659,0.00508666038513,0.0471108928323,0.183723941445,-0.017110388726
1536680825483821179,2570,1536680825476587864,Quadricopter_base,-0.182408943772,0.0315375998616,-0.00174045597669,0.047779224813,0.0201342888176,-0.0177656877786
1536680825524564749,2571,1536680825517144356,Quadricopter_base,-0.217467606068,0.0331868007779,-0.00358224031515,0.0617329180241,-0.0376262441278,-0.0153950192034
1536680825558195659,2572,1536680825550702532,Quadricopter_base,-0.253626763821,0.0325453802943,-0.00509023526683,0.0479487143457,0.0373627729714,-0.014096823521
1536680825591522859,2573,1536680825583793117,Quadricopter_base,-0.289871037006,0.0301712155342,-0.010092260316,0.0210184510797,0.202008843422,-0.0151291713119
1536680825631132367,2574,1536680825623889085,Quadricopter_base,-0.322693198919,0.0304642021656,-0.00505924131721,0.14334602654,0.234705835581,-0.0042884289287
1536680825673195126,2575,1536680825665698743,Quadricopter_base,-0.348950833082,0.0312522426248,0.00517487619072,0.263656377792,0.170315980911,0.00354678137228
1536680825717944516,2576,1536680825710356297,Quadricopter_base,-0.368046790361,0.0263459309936,0.0155842313543,0.167776271701,0.144745200872,-0.00200099195354
1536680825750417692,2577,1536680825743060237,Quadricopter_base,-0.381954967976,0.015831887722,0.0170969963074,-0.0876635313034,0.229712709785,-0.0105815324932
1536680825783936107,2578,1536680825776457217,Quadricopter_base,-0.392545163631,0.00919727981091,0.0249457359314,-0.0762069523335,0.336314588785,-0.00808523409069
1536680825821387662,2579,1536680825814142864,Quadricopter_base,-0.39694237709,0.0104218572378,0.0324189662933,0.196419492364,0.298651307821,-0.00336661282927
1536680825854145614,2580,1536680825846898892,Quadricopter_base,-0.390049576759,0.0107602924109,0.0379872322083,0.198978066444,0.0776173621416,-0.00156542775221
1536680825886099736,2581,1536680825878710984,Quadricopter_base,-0.377548664808,0.00564531981945,0.034122467041,-0.0243488345295,-0.0621102526784,-0.00169080286287
1536680825918812427,2582,1536680825911519367,Quadricopter_base,-0.368539094925,0.000675335526466,0.0287640094757,0.0412375032902,0.0781753286719,-0.00173418724444
1536680825950917889,2583,1536680825943666067,Quadricopter_base,-0.359362632036,-0.00350169837475,0.0204300880432,0.200161278248,0.196809098125,-0.00565482722595
1536680825983159193,2584,1536680825975780617,Quadricopter_base,-0.341563224792,-0.0114800184965,0.0217401981354,0.0761132016778,0.0764263272285,-0.006255176384
1536680826020006087,2585,1536680826012803626,Quadricopter_base,-0.320759654045,-0.0211991965771,0.0171768665314,-0.0497330911458,0.0277698896825,0.00225023645908
1536680826052168408,2586,1536680826044969236,Quadricopter_base,-0.301255524158,-0.0297172740102,0.0135815152898,-0.0170893687755,0.154193609953,0.0107490289956
1536680826084054454,2587,1536680826076765964,Quadricopter_base,-0.279156178236,-0.0357480719686,0.0153326978907,0.0931954309344,0.208496823907,0.00402228254825
1536680826121020911,2588,1536680826113743293,Quadricopter_base,-0.248794570565,-0.0417099036276,0.0179803371429,0.0379052050412,0.00344772869721,-0.00351904984564
1536680826156438249,2589,1536680826149193618,Quadricopter_base,-0.216703027487,-0.0490902364254,0.0138211259618,-0.0908093452454,-0.121262446046,0.00343714142218
1536680826188696188,2590,1536680826181348033,Quadricopter_base,-0.189302414656,-0.0558177754283,0.0124049177393,-0.0789456740022,-0.0219512358308,0.0115304067731
1536680826222568326,2591,1536680826215281250,Quadricopter_base,-0.164370909333,-0.0596757382154,0.0130259981379,0.0836566463113,0.0503072552383,0.00649430789053
1536680826255382250,2592,1536680826248173636,Quadricopter_base,-0.137274235487,-0.0657593980432,0.0150787830353,0.0258837006986,0.0665265023708,0.00558411236852
1536680826286853777,2593,1536680826279527928,Quadricopter_base,-0.107998907566,-0.0724396556616,0.0132310390472,-0.0586077533662,0.03560725227,0.00420591281727
1536680826319045458,2594,1536680826311597323,Quadricopter_base,-0.0778731778264,-0.0764167308807,0.0146090984344,0.0130481831729,-0.0263279527426,-0.000316053454299
1536680826351694380,2595,1536680826344477067,Quadricopter_base,-0.0496515333652,-0.0817091166973,0.0090217590332,-0.01612476632,0.0740129500628,0.00707848649472
1536680826384395150,2596,1536680826377193124,Quadricopter_base,-0.0204112436622,-0.0875149816275,0.00207781791687,-0.125839427114,0.163338020444,0.0113886771724
1536680826416324204,2597,1536680826408800826,Quadricopter_base,0.0129589103162,-0.0882138386369,-0.0113821029663,-0.131090670824,-0.0240984354168,0.00300433533266
1536680826447692565,2598,1536680826440295593,Quadricopter_base,0.0450430959463,-0.0839575380087,-0.0218749046326,0.0337083563209,-0.113282948732,-0.00735353911296
1536680826480170532,2599,1536680826472694971,Quadricopter_base,0.0745712220669,-0.0832846090198,-0.0276958942413,-0.0774606838822,-0.0140566080809,0.00110055273399
1536680826512318857,2600,1536680826504888024,Quadricopter_base,0.104052238166,-0.082532338798,-0.0284647941589,-0.228824242949,-0.0178467221558,0.00838784687221
1536680826544341449,2601,1536680826536804636,Quadricopter_base,0.130628943443,-0.0751336291432,-0.0357985496521,-0.0969349965453,-0.0587205775082,-0.00386082101613
1536680826575554770,2602,1536680826568201575,Quadricopter_base,0.15560811758,-0.0643869191408,-0.0310158729553,0.0107461856678,-0.103778600693,-0.0129915447906
1536680826613194322,2603,1536680826605691029,Quadricopter_base,0.179910153151,-0.0560994483531,-0.025235414505,-0.130514517426,-0.184604555368,-0.00539791118354
1536680826646641196,2604,1536680826639255603,Quadricopter_base,0.198662191629,-0.047316595912,-0.0235021114349,-0.197539404035,-0.182781383395,-0.00231258943677
1536680826679324257,2605,1536680826671662179,Quadricopter_base,0.210577756166,-0.0339231416583,-0.0174868106842,-0.0424984917045,-0.139855697751,-0.0120776994154
1536680826713295351,2606,1536680826705870164,Quadricopter_base,0.21778857708,-0.0194222778082,-0.00703692436218,0.0976422503591,-0.0961596220732,-0.0135908136144
1536680826748788207,2607,1536680826741495299,Quadricopter_base,0.223303571343,-0.00984561443329,-0.00275015807711,-0.00653551472351,-0.0198971815407,-0.00390218850225
1536680826781136498,2608,1536680826773626134,Quadricopter_base,0.229693502188,-0.00146339088678,0.00122666347306,-0.133875101805,-0.102591693401,0.0054497634992
1536680826813186403,2609,1536680826805897317,Quadricopter_base,0.234007030725,0.00983197242022,0.00351071334444,-0.123349279165,-0.245190188289,0.00896412599832
1536680826846025819,2610,1536680826838462203,Quadricopter_base,0.230467796326,0.022930778563,0.00573754310608,-0.00327735696919,-0.205548837781,0.0067218914628
1536680826878379098,2611,1536680826871102847,Quadricopter_base,0.219058617949,0.0340555235744,0.00416755722836,0.0981655791402,0.0667638480663,-0.00218912493438
1536680826910917660,2612,1536680826903513742,Quadricopter_base,0.209639832377,0.0412901341915,0.00542759848759,-0.0661226138473,0.176267638803,-0.00735239870846
1536680826943388919,2613,1536680826936124436,Quadricopter_base,0.206451922655,0.052324809134,-0.00384688354097,-0.0885994881392,-0.0694671794772,0.000603528344072
1536680826979226389,2614,1536680826971895272,Quadricopter_base,0.201259717345,0.0676733180881,-0.00633955048397,0.117011137307,-0.205434799194,0.00949150323868
1536680827012127481,2615,1536680827004832461,Quadricopter_base,0.191445603967,0.0764272287488,-0.00477433204651,-0.0171217992902,-0.0531731843948,0.0028899081517
1536680827044381687,2616,1536680827037087520,Quadricopter_base,0.179898276925,0.0833181887865,0.00261068344116,-0.163886249065,0.0171051435173,-0.00151212722994
1536680827081970483,2617,1536680827074477741,Quadricopter_base,0.167724788189,0.0973120853305,0.0149154663086,0.0618755221367,-0.120620161295,0.008255969733
1536680827116287982,2618,1536680827109122571,Quadricopter_base,0.153133392334,0.111314125359,0.0309407711029,0.271553695202,-0.197731524706,0.0175484344363
1536680827148928135,2619,1536680827141699223,Quadricopter_base,0.136221945286,0.114663340151,0.0286173820496,0.101173408329,-0.054847445339,0.00235858000815
1536680827183697670,2620,1536680827176411789,Quadricopter_base,0.119144380093,0.112944930792,0.0186002254486,-0.0793047323823,0.0176494251937,-0.0107081597671
1536680827215152623,2621,1536680827207995997,Quadricopter_base,0.102594092488,0.115738339722,0.0125968456268,0.087197303772,-0.133102014661,-0.0017880203668
1536680827247192669,2622,1536680827239859319,Quadricopter_base,0.0826315805316,0.116056576371,0.0163805484772,0.185829713941,-0.101833984256,0.00479969149455
1536680827279287929,2623,1536680827271956694,Quadricopter_base,0.0605812035501,0.108645156026,0.0115394592285,0.026087725535,0.132587701082,-0.00217927899212
1536680827311499786,2624,1536680827304078746,Quadricopter_base,0.0418000221252,0.10083065927,0.00338554382324,-0.0558010302484,0.181062355638,-0.00908150710166
1536680827343621138,2625,1536680827336343974,Quadricopter_base,0.0287270098925,0.099319010973,-0.00549793243408,0.145103812218,-0.101090803742,-0.00567188998684
1536680827376543772,2626,1536680827369384580,Quadricopter_base,0.015519907698,0.0948502346873,-0.0103855133057,0.226379364729,-0.226875424385,0.001293005771
1536680827413266650,2627,1536680827405728453,Quadricopter_base,-0.00308852642775,0.0785801708698,-0.00889182090759,-0.0653325542808,0.0768471583724,-0.0044850721024
1536680827445477369,2628,1536680827438019941,Quadricopter_base,-0.0215951800346,0.063778758049,-0.0091290473938,-0.0965868830681,0.197320193052,-0.00508387340233
