%time,field.header.seq,field.header.stamp,field.header.frame_id,field.twist.linear.x,field.twist.linear.y,field.twist.linear.z,field.twist.angular.x,field.twist.angular.y,field.twist.angular.z
1536679260576336843,4790,1536679260566458333,Quadricopter_base,0.0232638157904,0.035187844187,0.0184011459351,0.0245533287525,0.0549137666821,-0.0124057549983
1536679260619258553,4791,1536679260609435022,Quadricopter_base,0.0342159159482,0.0390518903732,-0.00157713890076,0.0532260462642,-0.00757121387869,-0.00892830267549
1536679260664952939,4792,1536679260653964427,Quadricopter_base,0.0466238930821,0.0423209518194,-0.0104606151581,0.0716444030404,-0.0929322168231,-0.00337362033315
1536679260713123742,4793,1536679260703292660,Quadricopter_base,0.0589292608202,0.0414121672511,-0.0124680995941,-0.0856637954712,-0.0929807946086,0.00351241556928
1536679260754828806,4794,1536679260745241188,Quadricopter_base,0.0689714252949,0.0403540991247,-0.0118017196655,-0.192451953888,-0.114220641553,0.00411291467026
1536679260800738417,4795,1536679260790683955,Quadricopter_base,0.0734087154269,0.0438183248043,-0.0124824047089,-0.0331333316863,-0.113295920193,-0.00298076309264
1536679260842929458,4796,1536679260833122763,Quadricopter_base,0.0741920769215,0.0477042011917,-0.00659346580505,0.0768601596355,-0.0883421376348,-0.00756145361811
1536679260885317251,4797,1536679260875509783,Quadricopter_base,0.0744869187474,0.0490435697138,0.00311732292175,0.0750298947096,-0.133503928781,-0.00195108423941
1536679260928916527,4798,1536679260918791679,Quadricopter_base,0.0736518204212,0.045894511044,0.00205397605896,-0.0552326105535,-0.154515206814,0.00146928010508
1536679260977969252,4799,1536679260968040140,Quadricopter_base,0.0680374503136,0.0416407845914,-5.36442494194e-05,-0.0635688379407,-0.0718140080571,0.00310893286951
1536679261027778290,4800,1536679261018019211,Quadricopter_base,0.0580792091787,0.038931582123,0.00594258308411,0.0940615609288,0.0375321358442,0.00433738064021
1536679261075971414,4801,1536679261066120616,Quadricopter_base,0.0500533394516,0.0346455574036,0.00409483909607,0.100547932088,0.046409856528,-0.00127436523326
1536679261122818592,4802,1536679261112756840,Quadricopter_base,0.0463909395039,0.0280946735293,0.00434160232544,-0.0403323434293,-0.0831261947751,-0.00863356329501
1536679261171597423,4803,1536679261161749798,Quadricopter_base,0.041577488184,0.0204311925918,0.0027072429657,-0.172606170177,-0.137802541256,-0.00994954351336
1536679261217023328,4804,1536679261207221263,Quadricopter_base,0.0309197492898,0.0151593126357,-0.00137209892273,-0.119756668806,-0.0797835439444,-0.00320823816583
1536679261260490461,4805,1536679261250763571,Quadricopter_base,0.0159384068102,0.013553169556,-0.00846385955811,0.0984720215201,-0.0595441684127,0.00426917430013
1536679261302930959,4806,1536679261292911936,Quadricopter_base,-4.38180250057e-05,0.00858408026397,-0.00320911407471,0.0970261245966,-0.00723069952801,-0.000785889278632
1536679261339378552,4807,1536679261328991766,Quadricopter_base,-0.0144955171272,-0.00138734094799,-0.00483393669128,-0.151238009334,0.0906955450773,-0.00927696563303
1536679261385994320,4808,1536679261374997471,Quadricopter_base,-0.0295646712184,-0.00708809867501,-0.00560402870178,-0.131406217813,0.167635068297,-0.00534357316792
1536679261432342241,4809,1536679261422292675,Quadricopter_base,-0.0433189868927,-0.00503738038242,-0.00170230865479,0.133397817612,0.0779523700476,0.000417855218984
1536679261477633111,4810,1536679261467626716,Quadricopter_base,-0.0527683198452,-0.00445347651839,0.000656843243632,0.137290984392,-0.0107216695324,-0.00166471931152
1536679261526387515,4811,1536679261517045475,Quadricopter_base,-0.0600201003253,-0.00824751518667,0.000163316741236,-5.39226821274e-05,-0.0196710154414,-0.000907180947252
1536679261574261027,4812,1536679261564332520,Quadricopter_base,-0.0687655806541,-0.0130784828216,-0.00240445137024,-0.0194792654365,0.0921795591712,0.00357919419184
1536679261621730167,4813,1536679261610844908,Quadricopter_base,-0.0765825361013,-0.0171077288687,-0.00202178955078,-0.0339876152575,0.186320975423,0.000216123036807
1536679261664825660,4814,1536679261654979300,Quadricopter_base,-0.0806395113468,-0.0181149542332,0.00509142875671,-0.0373888611794,0.173465326428,-0.003727639094
1536679261709691210,4815,1536679261700128956,Quadricopter_base,-0.081673130393,-0.0152565706521,0.00748634338379,0.0534520708025,0.153703972697,-0.00507056154311
1536679261753340750,4816,1536679261743407473,Quadricopter_base,-0.0775516629219,-0.0106394141912,0.00730752944946,0.0964672863483,0.0178058594465,-0.00962197966874
1536679261796925207,4817,1536679261789635393,Quadricopter_base,-0.0704157501459,-0.00821938365698,0.00264525413513,0.00332379201427,-0.0940598398447,-0.00956898927689
1536679261832336009,4818,1536679261824669468,Quadricopter_base,-0.0666659995914,-0.00782378204167,0.00296115875244,-0.00311844027601,0.0447234585881,-0.00497083272785
1536679261871807253,4819,1536679261864333778,Quadricopter_base,-0.0634864121675,-0.00770360417664,-0.000929832400288,-0.00280531682074,0.191208854318,-0.00772282434627
1536679261910146277,4820,1536679261900480268,Quadricopter_base,-0.0550233945251,-0.00520129874349,0.000245571107371,-0.0479573570192,0.122791811824,-0.00896392576396
1536679261945426455,4821,1536679261937357054,Quadricopter_base,-0.0434659197927,0.00139817036688,-0.00405311584473,0.028884626925,-0.0452636256814,-0.00644682813436
1536679261976990322,4822,1536679261969338112,Quadricopter_base,-0.0320803374052,0.00847467966378,-0.00200867652893,0.139541178942,-0.143818542361,-0.00553971668705
1536679262013740811,4823,1536679262006322892,Quadricopter_base,-0.0232224892825,0.00927809625864,0.00492811203003,0.0678538456559,0.0166345052421,-0.0017977359239
1536679262048226233,4824,1536679262040815264,Quadricopter_base,-0.0140972929075,0.00677193049341,0.0112760066986,-0.0455749034882,0.161280915141,0.00534924957901
1536679262089485705,4825,1536679262079718223,Quadricopter_base,-0.00131586706266,0.00879172980785,0.0133061408997,0.0418893769383,0.0418888069689,0.00285359891132
1536679262132628656,4826,1536679262122778341,Quadricopter_base,0.0144770741463,0.0114216860384,0.0147080421448,0.0509270317852,-0.125602513552,0.00178994447924
1536679262178853946,4827,1536679262169037667,Quadricopter_base,0.0274412967265,0.0101880598813,0.00885128974915,-0.0264015942812,-0.0342586003244,0.00552570214495
1536679262220140414,4828,1536679262210428144,Quadricopter_base,0.0382433161139,0.00941008701921,0.00207781791687,0.0383240394294,0.0339199341834,0.00400992017239
1536679262262178526,4829,1536679262252252155,Quadricopter_base,0.0503710210323,0.00786599423736,-0.00397801399231,0.0121395895258,0.0405138805509,0.0047751981765
1536679262304781717,4830,1536679262294985076,Quadricopter_base,0.0639032274485,0.00528895296156,-0.00531077384949,-0.0942008942366,0.076245367527,0.00559074897319
1536679262347380220,4831,1536679262337602898,Quadricopter_base,0.0792215242982,0.00648852810264,-0.00619173049927,-0.0859097242355,-0.056536629796,0.00361515628174
1536679262391136855,4832,1536679262381329043,Quadricopter_base,0.0958087667823,0.0107868015766,-0.0106728076935,-0.0885822325945,-0.410799980164,-5.99125414738e-05
1536679262434254014,4833,1536679262424412189,Quadricopter_base,0.105708301067,0.0128674134612,-0.0200736522675,-0.174558520317,-0.692179262638,-0.00330475578085
1536679262476774005,4834,1536679262467005362,Quadricopter_base,0.0991218686104,0.0097359791398,-0.0192987918854,-0.270035564899,-0.72012257576,-0.00732381176203
1536679262521958092,4835,1536679262511308912,Quadricopter_base,0.0716396793723,0.00178830511868,-0.0193321704865,-0.335536241531,-0.421092182398,-0.0171023961157
1536679262569456908,4836,1536679262559615669,Quadricopter_base,0.0251809749752,-0.00444238539785,-0.0268304347992,-0.116147167981,0.079540617764,-0.0112646920606
1536679262616475995,4837,1536679262606353506,Quadricopter_base,-0.0237663350999,-0.00553771108389,-0.0431954860687,0.186439603567,0.315646469593,0.00260332715698
1536679262656655132,4838,1536679262646793553,Quadricopter_base,-0.0599781535566,-0.00644527003169,-0.0558042526245,0.0679727345705,-0.00156568689272,0.00489095877856
1536679262699418671,4839,1536679262689232082,Quadricopter_base,-0.0883437544107,-0.0103431921452,-0.0638222694397,-0.366193115711,-0.528529942036,-0.0151876695454
1536679262739421313,4840,1536679262731703227,Quadricopter_base,-0.132585182786,-0.0142296627164,-0.0593805350363,-0.541264533997,-0.57977861166,-0.0303372889757
1536679262773963256,4841,1536679262766438858,Quadricopter_base,-0.202081620693,-0.0117973014712,-0.0645458698273,-0.105269402266,-0.0546587631106,-0.00108636915684
1536679262807560749,4842,1536679262800051662,Quadricopter_base,-0.282796353102,-0.00411102175713,-0.0642275810242,0.425412684679,0.420825123787,0.0294576380402
1536679262843706037,4843,1536679262833915176,Quadricopter_base,-0.348583072424,-0.00287701189518,-0.0543344020844,0.213273093104,0.370862543583,0.0101959705353
1536679262881266161,4844,1536679262871482916,Quadricopter_base,-0.394329488277,-0.00635540485382,-0.0425970554352,-0.428046107292,-0.171701222658,-0.0257666110992
1536679262918489854,4845,1536679262908808220,Quadricopter_base,-0.44645345211,-0.000146836100612,-0.0282406844199,-0.386546254158,-0.506208002567,-0.00246173143387
1536679262963645607,4846,1536679262953484573,Quadricopter_base,-0.520441532135,0.012710750103,-0.0158417355269,0.0982097834349,-0.200528487563,0.0323259197176
1536679263010535257,4847,1536679263000300763,Quadricopter_base,-0.601189672947,0.0190336555243,-0.0120007982478,0.176026582718,0.240868031979,-0.00464203488082
1536679263057727311,4848,1536679263047328192,Quadricopter_base,-0.675250470638,0.0227365791798,-0.01429438591,0.151178151369,0.428906977177,-0.0297690164298
1536679263106110227,4849,1536679263096035347,Quadricopter_base,-0.73784673214,0.0308783650398,-0.0254082623869,0.329940855503,0.411238819361,-0.00780972465873
1536679263151853886,4850,1536679263141778522,Quadricopter_base,-0.786419987679,0.0380818843842,-0.0170922260731,0.300328969955,0.137833938003,0.0123013081029
1536679263199771773,4851,1536679263190053855,Quadricopter_base,-0.82462477684,0.0369137823582,-0.00849008746445,-0.071788340807,-0.0808079093695,-0.00533479638398
1536679263244213593,4852,1536679263234704803,Quadricopter_base,-0.866501033306,0.0354124903679,-0.00318645662628,-0.0951956361532,0.0601522065699,-0.00943819526583
1536679263287050232,4853,1536679263277241987,Quadricopter_base,-0.913370072842,0.0386092066765,0.00208973744884,0.197859764099,0.415895700455,-0.00207571475767
1536679263333058641,4854,1536679263323309022,Quadricopter_base,-0.949487864971,0.0432980060577,0.00307202083059,0.319183468819,0.476223826408,-0.000443181663286
1536679263379637888,4855,1536679263369389305,Quadricopter_base,-0.967299520969,0.0467428863049,-0.00153184100054,0.176471099257,0.147351115942,0.00623039901257
1536679263424502719,4856,1536679263414238602,Quadricopter_base,-0.976196885109,0.0476732850075,0.00223278976046,-0.016471773386,-0.135895818472,0.00759694492444
1536679263469371944,4857,1536679263459438927,Quadricopter_base,-0.989855289459,0.0459145009518,0.0120580196381,-0.0655881091952,0.0129575980827,0.00256288703531
1536679263512762681,4858,1536679263502430907,Quadricopter_base,-1.00798070431,0.0460436344147,0.0174009781331,0.121904842556,0.317604064941,-5.31758341822e-05
1536679263556231074,4859,1536679263546412616,Quadricopter_base,-1.01901686192,0.0489930808544,0.0238966941833,0.315055310726,0.345198184252,0.00169505528174
1536679263604980373,4860,1536679263596145823,Quadricopter_base,-1.01418042183,0.048181116581,0.0342118740082,0.0592252463102,0.0443503595889,0.00518612097949
1536679263649719583,4861,1536679263639619821,Quadricopter_base,-1.00323283672,0.0457020401955,0.030323266983,-0.227370843291,-0.269749045372,0.00351951643825
1536679263695836921,4862,1536679263685975608,Quadricopter_base,-1.00382256508,0.0454187989235,0.0281727313995,-0.0671721920371,-0.0882643014193,0.00132416200358
1536679263738167009,4863,1536679263728237654,Quadricopter_base,-1.01195216179,0.0455986261368,0.0298035144806,0.183626830578,0.286190241575,-0.0057421727106
1536679263781505683,4864,1536679263771243210,Quadricopter_base,-1.01141476631,0.0459402501583,0.0305569190532,0.265548914671,0.224287569523,-0.00952081009746
1536679263827311808,4865,1536679263817681092,Quadricopter_base,-0.999677300453,0.0437965095043,0.0261259060353,0.154293894768,-0.053249258548,-0.00881612673402
1536679263873026529,4866,1536679263863046569,Quadricopter_base,-0.985827744007,0.0362321138382,0.0171232204884,-0.0597168467939,-0.0967494100332,-0.00250495411456
1536679263915737215,4867,1536679263905641329,Quadricopter_base,-0.97709274292,0.0282404124737,0.00936627574265,-0.0291978176683,0.110070668161,0.00700888643041
1536679263961046730,4868,1536679263950676773,Quadricopter_base,-0.968924462795,0.0235497951508,0.0123834619299,0.234859257936,0.25791940093,0.00347112771124
1536679264003584371,4869,1536679263994527194,Quadricopter_base,-0.951820373535,0.0170690119267,0.009222028777,0.234606400132,0.177190765738,-0.00116322736721
1536679264047411623,4870,1536679264037979549,Quadricopter_base,-0.924268841743,0.00514551997185,0.00951290130615,-0.141625389457,0.0361630655825,0.00866368506104
1536679264090367157,4871,1536679264080544004,Quadricopter_base,-0.895740628242,-0.00339987874031,0.0160288829356,-0.240969061852,-0.0866727158427,0.00754697434604
1536679264133479730,4872,1536679264122835040,Quadricopter_base,-0.875260829926,-0.00515651702881,0.0282847881317,0.157175958157,0.0392405167222,-0.00709328614175
1536679264180761474,4873,1536679264170951078,Quadricopter_base,-0.857556343079,-0.0112209618092,0.0311326999217,0.322331786156,0.454824447632,-0.00792057532817
1536679264222329735,4874,1536679264214562750,Quadricopter_base,-0.827481389046,-0.0218720734119,0.0313496552408,0.150786265731,0.704577028751,0.0167403705418
1536679264261050922,4875,1536679264253163183,Quadricopter_base,-0.778600096703,-0.0264808833599,0.0309908464551,0.119441442192,0.522806406021,0.0147403879091
1536679264303044911,4876,1536679264295290396,Quadricopter_base,-0.714760661125,-0.0250048339367,0.0230670068413,0.199380278587,0.184828698635,-0.0144883757457
1536679264341384360,4877,1536679264331705533,Quadricopter_base,-0.644311845303,-0.0261776149273,0.00791668891907,0.0367073044181,0.123255118728,0.00366049492732
1536679264378958156,4878,1536679264369107021,Quadricopter_base,-0.568712115288,-0.0276141315699,0.00179647933692,-0.111726030707,0.131155535579,0.0244506113231
1536679264414172239,4879,1536679264406660494,Quadricopter_base,-0.492961645126,-0.0238858610392,-0.0111234150827,0.0459022447467,0.062783524394,-0.00809792242944
1536679264446671441,4880,1536679264439005166,Quadricopter_base,-0.415999054909,-0.0189288258553,-0.0254595261067,0.216949135065,0.0265969429165,-0.0362736098468
1536679264482916101,4881,1536679264475387079,Quadricopter_base,-0.334160923958,-0.019327044487,-0.0355088710785,0.0424564704299,0.0142084173858,-0.00229691131972
1536679264520756141,4882,1536679264513309461,Quadricopter_base,-0.248969167471,-0.021920338273,-0.0369918346405,-0.142694428563,0.00612190924585,0.026063349098
1536679264556009807,4883,1536679264548772918,Quadricopter_base,-0.164550825953,-0.0206364393234,-0.036598443985,-0.101125374436,-0.0629610642791,0.00749461259693
1536679264589461512,4884,1536679264582356681,Quadricopter_base,-0.0817044973373,-0.0166947767138,-0.0320267677307,-0.0230585448444,-0.150939255953,-0.0107083050534
1536679264632308649,4885,1536679264622055005,Quadricopter_base,-0.00254783895798,-0.0135585293174,-0.0275552272797,0.026734534651,-0.161195755005,-0.0166977774352
1536679264670566863,4886,1536679264663119158,Quadricopter_base,0.0731947571039,-0.0144228599966,-0.0185239315033,-0.0425672195852,-0.0544473975897,0.00498528964818
1536679264708085146,4887,1536679264700275546,Quadricopter_base,0.145815417171,-0.0159891247749,-0.0187182445079,-0.0998330190778,-0.0128912357613,0.0193042363971
1536679264741691493,4888,1536679264733928013,Quadricopter_base,0.219488397241,-0.0144170075655,-0.0122416028753,-0.0917733609676,-0.174229443073,0.00197577220388
1536679264779854150,4889,1536679264772277622,Quadricopter_base,0.289550185204,-0.0119750127196,-0.00707030110061,-0.0830603539944,-0.32529309392,-0.0116024715826
1536679264814838770,4890,1536679264807389785,Quadricopter_base,0.35065433383,-0.0131821036339,-0.00561833381653,-0.170726180077,-0.269825905561,0.004733806476
1536679264848364486,4891,1536679264840868149,Quadricopter_base,0.402641415596,-0.0152589380741,-0.0150263300166,-0.246349290013,-0.20475268364,0.0170821901411
1536679264884172196,4892,1536679264874036229,Quadricopter_base,0.447841733694,-0.0142108798027,-0.0204169731587,-0.257929444313,-0.229587629437,0.0126500325277
1536679264916874515,4893,1536679264909020327,Quadricopter_base,0.485142558813,-0.00845412909985,-0.0222110748291,-0.115160644054,-0.266669511795,0.002057290636
1536679264958976767,4894,1536679264951169864,Quadricopter_base,0.515081644058,-0.00230629742146,-0.0191688537598,-0.019631581381,-0.273152530193,0.00250993669033
1536679265001799656,4895,1536679264994275292,Quadricopter_base,0.539613842964,-0.00112210214138,-0.00681877182797,-0.171144232154,-0.215135633945,0.0136978318915
1536679265043044656,4896,1536679265032502821,Quadricopter_base,0.557389318943,0.00150825083256,0.00663161231205,-0.16891348362,-0.220059722662,0.0114200869575
1536679265089213438,4897,1536679265079412562,Quadricopter_base,0.567496180534,0.00778043270111,0.00887036323547,0.0354708395898,-0.26995909214,0.00527082197368
1536679265131272373,4898,1536679265121299674,Quadricopter_base,0.572864770889,0.00905783474445,0.0106060504913,-0.0685365200043,-0.294325977564,0.00444349460304
1536679265174515656,4899,1536679265164845510,Quadricopter_base,0.571728825569,0.00678713619709,0.0122416028753,-0.238375812769,-0.260907769203,-0.00122373085469
1536679265217102014,4900,1536679265207224866,Quadricopter_base,0.559971988201,0.00747145712376,0.0149345379323,-0.114054560661,-0.129816547036,-0.00555037148297
1536679265257063289,4901,1536679265247564262,Quadricopter_base,0.543028354645,0.0111410915852,0.0126039981842,0.118811815977,-0.119190201163,0.00122446590103
1536679265301086784,4902,1536679265291152733,Quadricopter_base,0.526127994061,0.0102988034487,0.0175249595195,0.0220759361982,-0.216795474291,-0.00134262652136
1536679265347339922,4903,1536679265336690545,Quadricopter_base,0.505676627159,0.00406189262867,0.0263857822865,-0.233505502343,-0.185708925128,-0.0135176330805
1536679265393667619,4904,1536679265383060300,Quadricopter_base,0.477295339108,0.000225007548579,0.0356805287302,-0.230438783765,-0.0949577316642,-0.009048178792
1536679265435026877,4905,1536679265425049219,Quadricopter_base,0.445036292076,0.00196278095245,0.0342214107513,-0.0754331499338,-0.188308954239,0.00859663914889
1536679265475697829,4906,1536679265465229474,Quadricopter_base,0.408293545246,0.00309969484806,0.032243732363,-0.102793201804,-0.232065632939,0.00905210897326
1536679265523161677,4907,1536679265512955371,Quadricopter_base,0.366213142872,0.00203849375248,0.0235462207347,-0.259456753731,-0.16062438488,-0.00621712580323
1536679265569020831,4908,1536679265559554783,Quadricopter_base,0.315502792597,0.00512190163136,0.0140225868672,-0.131533831358,-0.02636263147,-0.0012396085076
1536679265615040344,4909,1536679265605651520,Quadricopter_base,0.260442376137,0.0129886642098,0.00512600084767,0.177761614323,0.0453573316336,0.0210560467094
1536679265656543781,4910,1536679265647335896,Quadricopter_base,0.208123445511,0.0179165154696,0.00276327133179,0.191477149725,0.0132368244231,0.0165912248194
1536679265700205170,4911,1536679265690666699,Quadricopter_base,0.159454092383,0.0174452066422,0.00404953956604,-0.0171493142843,-0.0339144170284,-0.0127501152456
1536679265743696091,4912,1536679265734041258,Quadricopter_base,0.109519660473,0.0164178423584,0.00312328408472,-0.0438536852598,0.037528835237,-0.0209861174226
1536679265785712837,4913,1536679265775638223,Quadricopter_base,0.0580757036805,0.0171051993966,0.00310778617859,0.0658501312137,0.144480884075,-0.0117505341768
1536679265824137318,4914,1536679265816219350,Quadricopter_base,0.0100353471935,0.018453091383,0.00658631324768,0.113512434065,0.145092338324,-0.00961114000529
1536679265861962025,4915,1536679265854352521,Quadricopter_base,-0.0325454324484,0.0188799500465,0.0104546546936,0.0569501072168,0.0778159052134,-0.016010966152
1536679265903092743,4916,1536679265895696505,Quadricopter_base,-0.0731924697757,0.0184102486819,0.0150382518768,0.0251511279494,0.130249977112,-0.016962274909
1536679265941189002,4917,1536679265933610998,Quadricopter_base,-0.110692113638,0.0197992324829,0.00976800918579,0.125711172819,0.149899214506,-0.00815506372601
1536679265981694140,4918,1536679265974163879,Quadricopter_base,-0.14388205111,0.0212381370366,0.0156784057617,0.193132847548,0.0919127389789,-0.000622094958089
1536679266018924961,4919,1536679266011764946,Quadricopter_base,-0.171800345182,0.0189974457026,0.0157332420349,0.114489585161,0.0526777803898,-0.00741493236274
1536679266053029003,4920,1536679266045654294,Quadricopter_base,-0.197696343064,0.0128954350948,0.0149214267731,-0.00350438058376,0.174112930894,-0.0200000368059
1536679266095442517,4921,1536679266087682144,Quadricopter_base,-0.221231579781,0.00887494534254,0.0216746330261,0.0308850184083,0.25279930234,-0.0193139184266
1536679266135037588,4922,1536679266127560412,Quadricopter_base,-0.237395972013,0.00973360240459,0.0305080413818,0.158239677548,0.0416331775486,-0.00554965389892
1536679266175772248,4923,1536679266167969904,Quadricopter_base,-0.249081373215,0.00790254771709,0.0283300876617,0.111301764846,-0.0820121318102,0.000906262081116
1536679266212187929,4924,1536679266204819500,Quadricopter_base,-0.262759506702,-0.00127848982811,0.0244843959808,-0.11644846946,0.194098412991,-0.00617493363097
1536679266250544535,4925,1536679266243264311,Quadricopter_base,-0.27519223094,-0.00667385011911,0.0168764591217,-0.140045896173,0.374158471823,-0.00407680822536
1536679266291410352,4926,1536679266283175079,Quadricopter_base,-0.280932217836,0.00102595239878,0.0145995616913,0.2671431005,0.127987727523,0.00193993980065
1536679266328146745,4927,1536679266320383465,Quadricopter_base,-0.280723929405,0.00701444596052,0.0105881690979,0.468340247869,-0.00329513428733,0.0053103081882
1536679266365994378,4928,1536679266358613887,Quadricopter_base,-0.274936169386,-0.00175811350346,-0.00172615039628,0.113507151604,0.163702890277,0.0105776805431
1536679266404993319,4929,1536679266397827694,Quadricopter_base,-0.263121247292,-0.0139347165823,-0.0128078460693,-0.188592091203,0.201599225402,0.0145568409935
1536679266441079376,4930,1536679266433782747,Quadricopter_base,-0.249607533216,-0.0170888602734,-0.00932335853577,0.0456482358277,0.154397919774,0.0041144862771
1536679266479443856,4931,1536679266471369823,Quadricopter_base,-0.233441144228,-0.0188042148948,-0.00613331748173,0.163056090474,0.200338602066,-0.00144994806033
1536679266520817788,4932,1536679266510000402,Quadricopter_base,-0.208940908313,-0.0222196504474,-0.00372052215971,0.042591072619,0.0780852213502,-0.000235302155488
1536679266565253117,4933,1536679266554995622,Quadricopter_base,-0.180592224002,-0.0260580293834,-0.00395059492439,-0.0783162489533,-0.0497499145567,-0.00218937988393
1536679266612085534,4934,1536679266601815394,Quadricopter_base,-0.155987516046,-0.0300386585295,-0.00481843901798,-0.111424915493,0.13378739357,0.00350899412297
1536679266659737322,4935,1536679266649268641,Quadricopter_base,-0.134809479117,-0.030016284436,-0.00567674590275,0.114647254348,0.506498098373,-0.00213470216841
1536679266710667084,4936,1536679266700452719,Quadricopter_base,-0.104582980275,-0.025304434821,-0.00548362731934,0.367754429579,0.733279287815,-0.0270278453827
1536679266753506687,4937,1536679266743081210,Quadricopter_base,-0.0538494177163,-0.0185085851699,-0.00810265541077,0.439030081034,0.630860865116,-0.0411049202085
1536679266801480839,4938,1536679266791687405,Quadricopter_base,0.0204101204872,-0.0124018397182,-0.00420331954956,0.363071262836,0.350238144398,-0.0343401692808
1536679266849874963,4939,1536679266840166023,Quadricopter_base,0.109128221869,-0.0108337141573,0.0022983555682,0.192017793655,0.223415702581,-0.00208325940184
1536679266899712867,4940,1536679266890154835,Quadricopter_base,0.205732762814,-0.0120568871498,0.0112056713551,0.0976961702108,0.287214100361,0.0226375553757
1536679266944346128,4941,1536679266934617381,Quadricopter_base,0.306495815516,-0.0119328051805,0.00532150315121,0.0876475796103,0.322063922882,0.0247868597507
1536679266986796193,4942,1536679266976390967,Quadricopter_base,0.414560228586,-0.0106694549322,-0.0107264528051,-0.0136573808268,0.26622146368,0.0364175960422
1536679267026896640,4943,1536679267018921655,Quadricopter_base,0.529878079891,-0.00460907816887,-0.0291621685028,-0.0296762548387,0.0485996492207,0.00598569586873
1536679267062074406,4944,1536679267054542370,Quadricopter_base,0.649103581905,0.00662499666214,-0.0420379675925,0.0905707105994,-0.199179917574,-0.053499635309
1536679267101182667,4945,1536679267093883130,Quadricopter_base,0.763788044453,0.0131249129772,-0.0559890344739,0.115234285593,-0.128163799644,-0.0407062917948
1536679267137713295,4946,1536679267130298742,Quadricopter_base,0.87924259901,0.0113155245781,-0.0559329949319,-0.0110042393208,0.0586219653487,0.0199924018234
1536679267174769410,4947,1536679267166999443,Quadricopter_base,0.998109519482,0.00726622343063,-0.0562727414072,-0.190743654966,-0.0647632703185,0.0465577803552
1536679267215214670,4948,1536679267207944516,Quadricopter_base,1.11623311043,0.00832265615463,-0.0601363144815,-0.221427291632,-0.430980682373,0.00607446674258
1536679267251321306,4949,1536679267243401194,Quadricopter_base,1.22249281406,0.0113791823387,-0.0606155246496,-0.130779281259,-0.459921658039,-0.0203309226781
1536679267287205104,4950,1536679267279693729,Quadricopter_base,1.31363201141,0.0107129812241,-0.0646472275257,-0.107376486063,-0.232720822096,-0.00360453617759
1536679267328422985,4951,1536679267318359174,Quadricopter_base,1.39670813084,0.00807189941406,-0.0737559869885,-0.142624557018,-0.128704980016,0.0109487771988
1536679267370946195,4952,1536679267360964009,Quadricopter_base,1.47846579552,0.00817424058914,-0.0731897503138,-0.130794659257,-0.297546684742,-0.00319953192957
1536679267411123636,4953,1536679267403369263,Quadricopter_base,1.55587005615,0.00880014896393,-0.0659465864301,-0.124937154353,-0.565345525742,-0.0174736585468
1536679267444143359,4954,1536679267436111929,Quadricopter_base,1.6195833683,0.00256472826004,-0.0522792339325,-0.228712916374,-0.493175983429,0.00312742544338
1536679267478923066,4955,1536679267470963410,Quadricopter_base,1.66795170307,-0.00751209259033,-0.0384259298444,-0.335579395294,-0.264861792326,0.0255004335195
1536679267512891788,4956,1536679267505031822,Quadricopter_base,1.70478034019,-0.00992345809937,-0.0244009420276,-0.14990323782,-0.224431216717,0.0106473471969
1536679267544559577,4957,1536679267536510571,Quadricopter_base,1.73406147957,-0.00681191682816,-0.0142562389374,0.103098675609,-0.302511632442,-0.0120252780616
1536679267577674704,4958,1536679267569634036,Quadricopter_base,1.75828564167,-0.0135998129845,-0.00202894140966,-0.167105644941,-0.185206070542,-0.00365024525672
1536679267610360306,4959,1536679267602531668,Quadricopter_base,1.77665221691,-0.0228570699692,0.0159275550395,-0.408217310905,-0.0566527545452,0.00940505322069
1536679267647209226,4960,1536679267639953135,Quadricopter_base,1.78767859936,-0.019205391407,0.0240206718445,-0.0805385410786,-0.149299234152,0.00250722072087
1536679267686355884,4961,1536679267676611798,Quadricopter_base,1.79376339912,-0.011606156826,0.0181603431702,0.216049328446,-0.250436097383,-0.00239106547087
1536679267731068206,4962,1536679267720202443,Quadricopter_base,1.79783308506,-0.014927983284,0.0215399246663,-0.0317485891283,-0.19732388854,-0.00162303261459
1536679267776656636,4963,1536679267767095737,Quadricopter_base,1.79923963547,-0.0228727459908,0.0286900978535,-0.351057112217,-0.219855770469,-0.000932913622819
1536679267819642086,4964,1536679267809858061,Quadricopter_base,1.79172885418,-0.0241214036942,0.0418829917908,-0.282403111458,-0.286452829838,-0.000911679584533
1536679267860465210,4965,1536679267850678619,Quadricopter_base,1.77302277088,-0.0209057927132,0.056854493916,-0.0791942626238,-0.244369372725,0.00309703825042
1536679267904839072,4966,1536679267894954950,Quadricopter_base,1.7462887764,-0.0186203122139,0.0646960735321,0.0458125434816,-0.121166549623,0.00376129965298
1536679267945884099,4967,1536679267936023558,Quadricopter_base,1.71832132339,-0.0189978480339,0.067236430943,-0.0465390011668,-0.121410086751,-0.00541110988706
1536679267988635873,4968,1536679267978779921,Quadricopter_base,1.68690049648,-0.0203824043274,0.0745225027204,-0.113100044429,-0.0931025147438,-0.00836828630418
1536679268033093745,4969,1536679268023303373,Quadricopter_base,1.65270447731,-0.0198654532433,0.071594722569,-0.0128960646689,-0.13270264864,0.00168274762109
1536679268079487629,4970,1536679268069681475,Quadricopter_base,1.61641526222,-0.0203963518143,0.0597536563873,0.0287280064076,-0.184839054942,0.00905504636467
1536679268123266450,4971,1536679268112990696,Quadricopter_base,1.57764554024,-0.0246445536613,0.0388217046857,-0.124045155942,-0.129716038704,-0.0035333763808
1536679268168677920,4972,1536679268159261289,Quadricopter_base,1.53336501122,-0.028700709343,0.0309121627361,-0.2375677526,-0.0614100284874,-0.0132631091401
1536679268210008793,4973,1536679268200451415,Quadricopter_base,1.48371195793,-0.028094291687,0.0309026315808,-0.0874091088772,-0.080794326961,0.00528576597571
1536679268250304304,4974,1536679268240538751,Quadricopter_base,1.43015325069,-0.0256090760231,0.0319504700601,0.129305317998,-0.107249088585,0.0263708624989
1536679268290635654,4975,1536679268280992320,Quadricopter_base,1.37690234184,-0.0266262888908,0.0285756550729,0.0472639277577,-0.12126980722,0.00760773429647
1536679268330880821,4976,1536679268321245640,Quadricopter_base,1.32307314873,-0.030244410038,0.0265562515706,-0.22830247879,-0.123030878603,-0.0317238904536
1536679268373309387,4977,1536679268363627787,Quadricopter_base,1.26248121262,-0.0306949019432,0.0294912010431,-0.225428909063,-0.0537037141621,-0.03572197631
1536679268417915218,4978,1536679268407946160,Quadricopter_base,1.19538521767,-0.0269754827023,0.0293099991977,0.0789862424135,0.0646524727345,-0.00515161920339
1536679268467648089,4979,1536679268457556483,Quadricopter_base,1.13034760952,-0.0238634049892,0.0247001647949,0.240025401115,0.0751411542296,0.0136765362695
1536679268513101025,4980,1536679268503110511,Quadricopter_base,1.06975281239,-0.0256075263023,0.0298678912222,0.0648531168699,0.0688534677029,-0.00701354071498
1536679268555232239,4981,1536679268545440573,Quadricopter_base,1.01398825645,-0.0280113816261,0.023503292352,-0.0963800698519,0.030476341024,-0.027050614357
1536679268596992223,4982,1536679268586983683,Quadricopter_base,0.956803917885,-0.0279556214809,0.0177514608949,-0.00585793051869,0.0628401041031,-0.012819243595
1536679268641907422,4983,1536679268631680364,Quadricopter_base,0.898240327835,-0.0277545750141,0.0191223733127,0.0881337672472,0.190653383732,-0.00473633687943
1536679268692685659,4984,1536679268682914201,Quadricopter_base,0.845574736595,-0.0271751880646,0.0225639343262,0.0183651000261,0.156513303518,-0.0133342957124
1536679268736484330,4985,1536679268726369921,Quadricopter_base,0.798215329647,-0.0243573784828,0.0138235166669,0.0404215827584,0.0860862135887,-0.0115439165384
1536679268771228667,4986,1536679268763906609,Quadricopter_base,0.751052320004,-0.0206239521503,0.00887036230415,0.211049333215,0.169700756669,-0.00254507688805
1536679268809570410,4987,1536679268802168889,Quadricopter_base,0.707934141159,-0.0205672383308,0.00887513253838,0.19327545166,0.343560755253,-0.00856012944132
1536679268845473647,4988,1536679268837969199,Quadricopter_base,0.676235675812,-0.0208580195904,0.0122594833374,0.0802536159754,0.242876708508,-0.0117346569896
1536679268877423242,4989,1536679268869616161,Quadricopter_base,0.652833580971,-0.0190628767014,0.011194945313,0.0505853891373,0.0483428277075,-0.0074023688212
1536679268909823942,4990,1536679268902285826,Quadricopter_base,0.63035005331,-0.0172821581364,0.00485539482906,0.137597501278,0.0970469713211,-0.00622699037194
1536679268942175956,4991,1536679268934740304,Quadricopter_base,0.610876202583,-0.0176698565483,0.00139474787284,0.133910506964,0.158256903291,-0.00840168446302
1536679268974202478,4992,1536679268966682134,Quadricopter_base,0.597471356392,-0.0205434858799,0.000494718842674,-0.0332407578826,0.135118961334,-0.00955009739846
1536679269008764336,4993,1536679269001005662,Quadricopter_base,0.58545088768,-0.0211655199528,-0.0101923942566,0.0180621724576,0.233546763659,-0.00794016290456
1536679269046963924,4994,1536679269036480316,Quadricopter_base,0.576364934444,-0.0172978937626,-0.00874042417854,0.266655385494,0.315548121929,-0.00801577605307
1536679269086684381,4995,1536679269078996159,Quadricopter_base,0.578432500362,-0.0142136961222,-0.00655889557675,0.301369100809,0.158881857991,-0.00853135157377
1536679269130104025,4996,1536679269118766503,Quadricopter_base,0.589735925198,-0.0185841470957,-0.0100028496236,0.00762607995421,0.109354197979,-0.00247324304655
1536679269176136929,4997,1536679269166643033,Quadricopter_base,0.602495074272,-0.022418230772,-0.00998616591096,-0.0163971930742,0.209146142006,-0.0018702406669
1536679269229424635,4998,1536679269219027785,Quadricopter_base,0.617965400219,-0.0214710533619,-0.0145912161097,0.169807702303,0.255893707275,-0.0101655088365
1536679269272468722,4999,1536679269262014483,Quadricopter_base,0.640758395195,-0.0205213725567,-0.0213706512004,0.211578682065,0.240988045931,-0.0142756327987
1536679269312981855,5000,1536679269303097891,Quadricopter_base,0.67355298996,-0.0213313996792,-0.0170981921256,0.143022403121,0.121653884649,-0.0128598697484
1536679269355329601,5001,1536679269345473938,Quadricopter_base,0.711595714092,-0.027234017849,-0.0172698516399,-0.125706061721,0.126695543528,0.0103895356879
1536679269397351035,5002,1536679269387523871,Quadricopter_base,0.751252055168,-0.0284327566624,-0.0164866503328,-0.11816252768,0.0945600420237,0.00593179790303
1536679269441066588,5003,1536679269430645763,Quadricopter_base,0.792335093021,-0.0225984454155,-0.0169050712138,0.0518536530435,-0.0902807414532,-0.0176464468241
1536679269482276002,5004,1536679269474776125,Quadricopter_base,0.832476258278,-0.0212354362011,-0.0152087211609,-0.0903705433011,-0.0360611639917,-0.00371182709932
1536679269515432053,5005,1536679269507853865,Quadricopter_base,0.868914186954,-0.0206605494022,-0.0148522807285,-0.151110082865,0.16170156002,0.0137955024838
1536679269557068964,5006,1536679269547032752,Quadricopter_base,0.906821012497,-0.012320548296,-0.0121474219486,0.029544133693,0.119430236518,0.0046949563548
1536679269600397572,5007,1536679269590560628,Quadricopter_base,0.948952615261,-0.000490427017212,-0.0143670979887,0.144780308008,-0.126920968294,-0.0109487157315
1536679269641854105,5008,1536679269632384253,Quadricopter_base,0.9908233881,0.00457307696342,-0.0167834814638,-0.0150565439835,-0.105258852243,-0.00138154590968
1536679269684250736,5009,1536679269673673780,Quadricopter_base,1.0289939642,0.00669148564339,-0.0158381424844,-0.0960366278887,0.0781499296427,0.00873775780201
1536679269730648419,5010,1536679269720870393,Quadricopter_base,1.06792128086,0.0151621997356,-0.0168514270335,0.0735538676381,-0.0362700670958,-0.0114425607026
1536679269779044234,5011,1536679269769224186,Quadricopter_base,1.10900831223,0.0216573476791,-0.0240600071847,-0.000482302537421,-0.260775595903,-0.0131394611672
1536679269828138345,5012,1536679269818402858,Quadricopter_base,1.14595878124,0.0232155323029,-0.0289666634053,-0.155451506376,-0.309885650873,-0.0047590485774
1536679269873909308,5013,1536679269863819552,Quadricopter_base,1.17415678501,0.0248115062714,-0.0352776087821,-0.134342327714,-0.291354775429,-0.00581249501556
1536679269915118175,5014,1536679269905413141,Quadricopter_base,1.19273662567,0.0256305038929,-0.0400328636169,-0.0796322152019,-0.154206097126,-0.00424826703966
1536679269953136019,5015,1536679269943454865,Quadricopter_base,1.20593857765,0.0265537798405,-0.0485217571259,-0.0162506625056,-0.0535449311137,-0.00403366563842
1536679269994337669,5016,1536679269984827885,Quadricopter_base,1.21739983559,0.027661293745,-0.0455272197723,0.049747493118,-0.027252567932,-0.00430385069922
1536679270032787496,5017,1536679270023060182,Quadricopter_base,1.22991263866,0.0270953178406,-0.0391495265067,-0.00574312265962,-0.0854758173227,-0.00335029070266
1536679270075101288,5018,1536679270065265695,Quadricopter_base,1.24278974533,0.0252732038498,-0.0291621685028,-0.0960022136569,-0.258151084185,0.000551694829483
1536679270118293496,5019,1536679270108519233,Quadricopter_base,1.24902331829,0.0230588912964,-0.0198173522949,-0.0390671975911,-0.301844537258,0.00399215612561
1536679270159467573,5020,1536679270149656053,Quadricopter_base,1.24663722515,0.0173872113228,-0.00959754176438,-0.0094586526975,-0.180099382997,0.00787407997996
1536679270195844155,5021,1536679270186170768,Quadricopter_base,1.24017047882,0.00885957479477,-0.00703453831375,-0.0884064137936,-0.109710231423,0.0055888434872
1536679270233774111,5022,1536679270223927673,Quadricopter_base,1.23094666004,0.00121784210205,-0.00106811546721,-0.125404089689,-0.170498177409,0.00185613706708
1536679270282753637,5023,1536679270272928591,Quadricopter_base,1.21607148647,-0.00524747371674,-0.0039529800415,-0.043646723032,-0.136472269893,0.00587679911405
1536679270326657062,5024,1536679270316558672,Quadricopter_base,1.19670188427,-0.0127960443497,-0.00369310379028,-0.0287609770894,-0.0627720281482,0.00607512658462
1536679270370715707,5025,1536679270360778295,Quadricopter_base,1.17578041553,-0.0211399197578,0.00419974280521,-0.114325873554,-0.0439882986248,-0.000147233076859
1536679270418099134,5026,1536679270408058901,Quadricopter_base,1.15225446224,-0.0277144312859,0.0167131461203,-0.150079056621,-0.0303483754396,-0.0044941441156
1536679270458488605,5027,1536679270448466025,Quadricopter_base,1.12645721436,-0.0297571122646,0.0190937481821,0.0288226101547,-0.0949049815536,0.00725907366723
1536679270501982551,5028,1536679270491912294,Quadricopter_base,1.09896850586,-0.0325182974339,0.0139760999009,0.14927020669,-0.126431494951,0.0145892500877
1536679270541507994,5029,1536679270534051933,Quadricopter_base,1.06920802593,-0.0414644479752,0.0135588664562,0.0658860653639,0.0306391883641,0.0056533915922
1536679270577901355,5030,1536679270567868401,Quadricopter_base,1.03923475742,-0.0528360307217,0.0288093090057,-0.0265048220754,0.160938471556,-0.00671824906021
1536679270620590562,5031,1536679270610333644,Quadricopter_base,1.01339256763,-0.0621407032013,0.0402390956879,-0.136700108647,0.154479146004,-0.0152897285298
1536679270666055937,5032,1536679270656129346,Quadricopter_base,0.990889072418,-0.0648493766785,0.0449287854135,-0.0497186370194,-0.0172462128103,-0.00742634292692
1536679270712916393,5033,1536679270702879650,Quadricopter_base,0.96729695797,-0.0643925070763,0.0428915023804,0.195450097322,-0.114321351051,0.00734800240025
1536679270757828141,5034,1536679270746992396,Quadricopter_base,0.942617535591,-0.0716570615768,0.0338065624237,0.0596861205995,0.0781480967999,-0.00452657556161
1536679270807861797,5035,1536679270797899841,Quadricopter_base,0.9186668396,-0.0823086798191,0.0250613689423,-0.138666346669,0.37145331502,-0.0151783749461
1536679270857911583,5036,1536679270848039192,Quadricopter_base,0.900983393192,-0.0830870270729,0.0268173199147,0.0586171410978,0.23262950778,-0.00718791317195
1536679270901156986,5037,1536679270891541692,Quadricopter_base,0.890367984772,-0.0805536806583,0.024231672287,0.171679794788,0.0196887161583,0.00309736095369
1536679270944736015,5038,1536679270935205466,Quadricopter_base,0.882478237152,-0.0836329162121,0.0239646434784,0.00890709273517,0.0881817042828,0.00428380537778
1536679270985775727,5039,1536679270976052675,Quadricopter_base,0.876458644867,-0.0863419473171,0.0150525569916,-0.0346692427993,0.122165985405,0.00343956751749
1536679271026115245,5040,1536679271017017667,Quadricopter_base,0.872362136841,-0.0859104990959,0.0168287754059,0.0373865813017,0.11360925436,0.00236693490297
1536679271067999536,5041,1536679271058018313,Quadricopter_base,0.871817588806,-0.0858769416809,0.0241541862488,-0.0658131837845,0.0925350934267,0.000679493241478
1536679271109892491,5042,1536679271102741273,Quadricopter_base,0.873047351837,-0.083045065403,0.0220429897308,-0.075551584363,0.0387021936476,0.000143666547956
1536679271148837698,5043,1536679271141433384,Quadricopter_base,0.874019801617,-0.0775898694992,0.0126361846924,-0.00927040539682,0.0301128607243,0.00231913500465
1536679271183717625,5044,1536679271175686897,Quadricopter_base,0.874646604061,-0.0729528963566,0.00703096482903,-0.0755772665143,0.145062178373,0.00104461016599
1536679271219670668,5045,1536679271211683993,Quadricopter_base,0.877614080906,-0.0648936033249,-0.00131607172079,-0.0816969722509,0.134020715952,-0.0020486896392
1536679271251240308,5046,1536679271243328277,Quadricopter_base,0.882891118526,-0.0505521595478,-0.00294923828915,0.0924372524023,0.00876487977803,-0.00526675442234
1536679271284888846,5047,1536679271277331578,Quadricopter_base,0.889484524727,-0.0379259586334,0.00259637809359,0.0967394635081,0.00826260633767,-0.00750540103763
1536679271318474304,5048,1536679271310830343,Quadricopter_base,0.898803174496,-0.0297755002975,0.00841975212097,-0.12632612884,-0.00297132181004,-0.00144302390981
1536679271351037497,5049,1536679271343349956,Quadricopter_base,0.906434595585,-0.0188561081886,0.00770807266235,-0.098665393889,-0.0279621575028,0.00439174985513
1536679271390012450,5050,1536679271382606767,Quadricopter_base,0.910321354866,-0.00393518805504,0.00438094325364,0.148925870657,0.0300648771226,0.000524471106473
1536679271427456063,5051,1536679271419969820,Quadricopter_base,0.916654646397,0.00923120975494,0.000599623541348,0.225792527199,-0.0093179224059,-0.00249397358857
1536679271461740528,5052,1536679271454383587,Quadricopter_base,0.926084756851,0.0164050459862,0.00936269946396,0.131058439612,-0.00302028516307,3.93332520616e-05
1536679271500249089,5053,1536679271490092184,Quadricopter_base,0.937318563461,0.0178286731243,0.0145494928584,-0.0881089642644,0.0948504507542,0.00681227585301
1536679271544510049,5054,1536679271534213394,Quadricopter_base,0.949808716774,0.0217757821083,0.0105333328247,-0.134455054998,0.069880887866,0.00977744534612
1536679271585420936,5055,1536679271575827408,Quadricopter_base,0.962259411812,0.0321218669415,0.000261069566477,0.0401765704155,-0.0572984963655,0.00102783134207
1536679271633828943,5056,1536679271624209408,Quadricopter_base,0.974287509918,0.0420982539654,-0.000178813730599,0.0899641513824,-0.0948306024075,-0.00527332955971
1536679271675101611,5057,1536679271665275983,Quadricopter_base,0.985412955284,0.0472941696644,-0.00138401892036,-0.042755573988,-0.0236777067184,-0.00540483836085
1536679271711874818,5058,1536679271704494181,Quadricopter_base,0.994852662086,0.053466886282,0.0017297253944,0.00583609007299,0.0144476266578,-0.00596522632986
1536679271746739393,5059,1536679271739332700,Quadricopter_base,1.00352144241,0.0616310536861,0.00262022111565,0.188316076994,0.0322838947177,-0.00997279305011
1536679271781415330,5060,1536679271773962801,Quadricopter_base,1.01634645462,0.0653385221958,0.0137257585302,0.110378921032,-0.0137382689863,-0.00787805858999
1536679271823214383,5061,1536679271814653112,Quadricopter_base,1.0318659544,0.0650407373905,0.0172007102519,-0.0688657388091,-0.104806125164,-0.00226041581482
1536679271860412150,5062,1536679271852408331,Quadricopter_base,1.04395830631,0.0642318427563,0.0171291809529,-0.0946127027273,-0.0702953264117,0.00268138735555
1536679271905284075,5063,1536679271895493819,Quadricopter_base,1.05308902264,0.0646993815899,0.0232422333211,-0.068831063807,-0.0325107090175,0.00315377535298
1536679271942046033,5064,1536679271934495339,Quadricopter_base,1.06006884575,0.0676687955856,0.0259554367512,0.0333255752921,-0.0470435582101,-0.00300661940128
1536679271979039580,5065,1536679271971176179,Quadricopter_base,1.06653869152,0.0703881978989,0.0240361690521,0.0940809324384,-0.0846916511655,-0.00681052543223
1536679272018287632,5066,1536679272008479350,Quadricopter_base,1.07250976562,0.0688599646091,0.0252056121826,0.0124603621662,-0.0553017519414,-0.00403067469597
1536679272057500983,5067,1536679272047697437,Quadricopter_base,1.07790851593,0.0658783316612,0.0216317176819,-0.0532401576638,-0.0749810039997,-0.00389839266427
1536679272097416254,5068,1536679272087351274,Quadricopter_base,1.08190524578,0.0625516176224,0.0203812122345,-0.146122634411,-0.106617078185,-0.00629547052085
1536679272134821156,5069,1536679272125530971,Quadricopter_base,1.08142864704,0.061461776495,0.0207555294037,-0.0893510058522,-0.0891112685204,-0.00349270855077
1536679272175152134,5070,1536679272167314585,Quadricopter_base,1.07607376575,0.0621056556702,0.0170695781708,0.069196395576,0.00506241898984,-0.0012208748376
1536679272211223902,5071,1536679272201682524,Quadricopter_base,1.07193291187,0.0615508854389,0.00294804573059,0.0635467767715,0.00988387875259,-0.00677941739559
1536679272247953193,5072,1536679272238287845,Quadricopter_base,1.06972360611,0.0593762993813,-0.00925064086914,-0.0407024174929,-0.0452776998281,-0.0132499355823
1536679272290623004,5073,1536679272281039446,Quadricopter_base,1.06646490097,0.0581417679787,-0.0127136697993,-0.010277511552,-0.100907027721,-0.0116405310109
1536679272335526244,5074,1536679272325589188,Quadricopter_base,1.05997371674,0.0554685592651,-0.0175321083516,0.0162301845849,-0.0267083588988,-0.00780778052285
1536679272379535123,5075,1536679272369433673,Quadricopter_base,1.05307888985,0.0511398911476,-0.0256001967937,-0.0638073906302,0.0312367361039,-0.0110351145267
1536679272423602066,5076,1536679272413487191,Quadricopter_base,1.04642271996,0.0479518175125,-0.0253069400787,-0.138616994023,0.0270086135715,-0.0121173728257
1536679272466788070,5077,1536679272456710761,Quadricopter_base,1.0382488966,0.0492670238018,-0.0233924388885,-0.000908383575734,-0.00640655495226,-0.00528810126707
1536679272512926305,5078,1536679272502185754,Quadricopter_base,1.02943682671,0.0515355467796,-0.0197517871857,0.1160024032,-0.0296976454556,-0.00140665343497
1536679272554767665,5079,1536679272545024091,Quadricopter_base,1.02125346661,0.0501164197922,-0.025007724762,0.0656539723277,0.0268210172653,-0.00157285120804
1536679272596401493,5080,1536679272586459509,Quadricopter_base,1.01413011551,0.0468039512634,-0.0170648079365,0.024782044813,0.0794006064534,0.000477978057461
1536679272639095630,5081,1536679272629622757,Quadricopter_base,1.00956916809,0.0433292388916,-0.00356316496618,-0.0580408573151,0.0439997240901,-0.00180847593583
1536679272678643460,5082,1536679272668565999,Quadricopter_base,1.00693523884,0.0422321259975,0.00509262131527,-0.0971045270562,-0.0848566666245,-0.00271273660474
1536679272725598504,5083,1536679272716018960,Quadricopter_base,1.00049746037,0.0436215996742,0.00590920494869,0.0677568763494,-0.0932836979628,0.00240521063097
1536679272767161626,5084,1536679272759151171,Quadricopter_base,0.991338133812,0.0426435768604,0.0101149072871,0.169059306383,-0.00325190834701,0.00458264397457
1536679272798808051,5085,1536679272791287362,Quadricopter_base,0.984245300293,0.0364066958427,0.00991702079773,0.025547195226,0.0701964199543,0.000814243685454
1536679272836354987,5086,1536679272825693262,Quadricopter_base,0.979933798313,0.0290437042713,0.00481367111206,-0.145331352949,0.0872537568212,-0.00400418043137
1536679272882874110,5087,1536679272873074413,Quadricopter_base,0.976713955402,0.027179569006,-0.00355124473572,-0.0924794822931,-0.0416054427624,-0.00408991426229
1536679272923360526,5088,1536679272913555214,Quadricopter_base,0.970747470856,0.0283680856228,-0.00356674217619,0.0606777966022,-0.0746882855892,-0.00316640851088
1536679272968213155,5089,1536679272958472532,Quadricopter_base,0.962896168232,0.0272198319435,-0.00159025273751,0.101589530706,0.0112643921748,-0.00341638550162
1536679273013898678,5090,1536679273004218071,Quadricopter_base,0.957473039627,0.0227359831333,0.00220775627531,-0.0255731474608,-0.0133155276999,-0.00239797774702
1536679273056078356,5091,1536679273046380871,Quadricopter_base,0.956538319588,0.0174297988415,0.00331163057126,-0.367302894592,-0.321916043758,-0.0107778189704
1536679273095664922,5092,1536679273085870440,Quadricopter_base,0.948454022408,0.0179517567158,-0.00120997638442,-0.472077161074,-0.693266928196,-0.0104954354465
1536679273135238707,5093,1536679273125484597,Quadricopter_base,0.918246090412,0.0216507911682,-0.0102734575048,-0.23522695899,-0.633663773537,0.011647099629
1536679273172287621,5094,1536679273162774566,Quadricopter_base,0.867227673531,0.0215297341347,-0.00911235809326,-0.148057982326,-0.345759809017,0.00390963954851
1536679273206037262,5095,1536679273198613689,Quadricopter_base,0.808850467205,0.0200529098511,-0.0200068783015,-0.23477768898,-0.282925903797,-0.0165505111217
1536679273246241622,5096,1536679273238828247,Quadricopter_base,0.741396605968,0.0207639038563,-0.0324129872024,-0.150082394481,-0.325908333063,-0.000467825186206
1536679273283647808,5097,1536679273275692671,Quadricopter_base,0.66499298811,0.0206857025623,-0.0409340821207,-0.121052630246,-0.351523190737,0.0103385271505
1536679273320965634,5098,1536679273313382651,Quadricopter_base,0.580735981464,0.0178353488445,-0.0531053505838,-0.261754572392,-0.346164941788,-0.0101088741794
1536679273361733468,5099,1536679273353771094,Quadricopter_base,0.486563801765,0.0156394988298,-0.0671398639679,-0.320198506117,-0.331662297249,-0.0162500720471
1536679273395598743,5100,1536679273387753744,Quadricopter_base,0.377485841513,0.016084253788,-0.0762760713696,-0.131991192698,-0.204103589058,0.0157079156488
1536679273431787973,5101,1536679273424282612,Quadricopter_base,0.261229395866,0.0172455310822,-0.0815916061401,-0.0353124551475,-0.220047995448,0.0387308634818
1536679273466849299,5102,1536679273459370877,Quadricopter_base,0.140669688582,0.0159973613918,-0.085586309433,-0.143964365125,-0.295712143183,0.0236366596073
1536679273501865290,5103,1536679273494513483,Quadricopter_base,0.0136235142127,0.0137495715171,-0.0979423522949,-0.145571097732,-0.268347352743,0.0178170036525
1536679273540368808,5104,1536679273530177438,Quadricopter_base,-0.123539291322,0.0120507692918,-0.109357833862,0.000777336827014,-0.178600072861,0.0395662710071
1536679273586140558,5105,1536679273575867645,Quadricopter_base,-0.266155719757,0.00949484109879,-0.119805328548,0.133565440774,-0.121102489531,0.0600278005004
1536679273632649392,5106,1536679273622796990,Quadricopter_base,-0.40978127718,-0.000314982433338,-0.128787741065,-0.0198634508997,-0.0692277550697,-0.00500587839633
1536679273681795651,5107,1536679273671298314,Quadricopter_base,-0.553620934486,-0.0155806392431,-0.142093911767,-0.254316031933,0.0339071042836,-0.0893560424447
1536679273716625006,5108,1536679273709082868,Quadricopter_base,-0.707507431507,-0.0230524241924,-0.136879682541,-0.118778429925,0.121062330902,-0.0479517057538
1536679273750068509,5109,1536679273742604464,Quadricopter_base,-0.865197122097,-0.0208106655627,-0.123006075621,0.139407217503,0.188626110554,0.0284867528826
1536679273782347339,5110,1536679273774926602,Quadricopter_base,-1.01717913151,-0.0175737738609,-0.113682769239,0.216690585017,0.335037976503,0.0272325240076
1536679273819454577,5111,1536679273809352101,Quadricopter_base,-1.15447545052,-0.0163096487522,-0.115177638829,0.127766892314,0.293348610401,0.00430637644604
1536679273862465549,5112,1536679273852473919,Quadricopter_base,-1.2835829258,-0.0138688096777,-0.107767567039,0.0816404744983,0.144821509719,0.0140967406332
1536679273904904973,5113,1536679273894976695,Quadricopter_base,-1.41310405731,-0.00727450847626,-0.0934577211738,0.275293588638,0.310336619616,0.0335850082338
1536679273945125754,5114,1536679273935291306,Quadricopter_base,-1.5351151228,-0.00159138464369,-0.078701980412,0.400785088539,0.557733654976,0.0226946529001
1536679273984825139,5115,1536679273977178626,Quadricopter_base,-1.63921618462,0.000399947253754,-0.0627851858735,0.356001108885,0.560300886631,0.00820580683649
1536679274018683504,5116,1536679274011456528,Quadricopter_base,-1.72412109375,-0.00181245792191,-0.0383949317038,0.191937312484,0.364070415497,-0.0043715746142
1536679274051789322,5117,1536679274044398638,Quadricopter_base,-1.79736208916,-0.00443464517593,-0.011237859726,0.13707780838,0.254753053188,-0.00491861021146
1536679274089637496,5118,1536679274082258240,Quadricopter_base,-1.86350047588,-0.00826555490494,0.0168585944921,0.0986422598362,0.324979990721,-0.0123581755906
1536679274124354513,5119,1536679274116207177,Quadricopter_base,-1.92062652111,-0.0103256702423,0.037807226181,0.0991507619619,0.362746119499,-0.0119526358321
1536679274157272708,5120,1536679274149101896,Quadricopter_base,-1.96871829033,-0.00728380680084,0.0520193688571,0.261579602957,0.383382320404,0.00154392106924
1536679274190663092,5121,1536679274183089229,Quadricopter_base,-2.00339341164,-0.00497978925705,0.0608706437051,0.243763700128,0.256421983242,0.00799172930419
1536679274224051901,5122,1536679274216496917,Quadricopter_base,-2.02760601044,-0.00755774974823,0.0732171460986,0.0347104817629,0.185934215784,0.00278956606053
1536679274258553563,5123,1536679274250895947,Quadricopter_base,-2.04676032066,-0.00891011953354,0.0803220272064,-0.010128820315,0.157979860902,0.00271451077424
1536679274293721017,5124,1536679274286126098,Quadricopter_base,-2.06246829033,-0.00723618268967,0.0905108451843,0.0549004934728,0.111177310348,0.00324296276085
1536679274327026413,5125,1536679274319328108,Quadricopter_base,-2.07514452934,-0.00628852844238,0.0920808315277,0.020323369652,0.146990686655,-0.000168407190358
1536679274358987134,5126,1536679274351169706,Quadricopter_base,-2.08448338509,-0.00424271821976,0.0939869880676,0.00197387393564,0.17464402318,0.00114948407281
1536679274393001955,5127,1536679274385354502,Quadricopter_base,-2.09083986282,0.00176697969437,0.102752447128,0.176464408636,0.145237922668,0.0012292714091
1536679274433205678,5128,1536679274422825423,Quadricopter_base,-2.09290862083,0.00599193572998,0.106911659241,0.257802665234,0.203496605158,0.00137873750646
1536679274475540269,5129,1536679274465523563,Quadricopter_base,-2.08748435974,0.00484532117844,0.103005178273,0.0486062802374,0.30771240592,0.00945920404047
1536679274519920615,5130,1536679274509843997,Quadricopter_base,-2.07294106483,0.00694620609283,0.105016238987,0.00302171614021,0.166439533234,0.0107044344768
1536679274568668929,5131,1536679274558740550,Quadricopter_base,-2.05423045158,0.013003051281,0.103332996368,0.151984676719,-0.00187715725042,0.00505844550207
1536679274611460067,5132,1536679274601077729,Quadricopter_base,-2.03517603874,0.0141594409943,0.0996255874634,0.0667004883289,0.178967341781,0.0125177931041
1536679274659162735,5133,1536679274648753722,Quadricopter_base,-2.01267647743,0.0143893361092,0.0970077589154,-0.0100073600188,0.341732740402,0.0166644379497
1536679274707966473,5134,1536679274697600418,Quadricopter_base,-1.98183572292,0.0198945999146,0.0943613052368,0.0974163040519,0.18561321497,0.00268113077618
1536679274754025546,5135,1536679274743773913,Quadricopter_base,-1.94810080528,0.0248485803604,0.0906824991107,0.207278266549,0.322297215462,-0.0025071548298
1536679274801128650,5136,1536679274791358540,Quadricopter_base,-1.90831518173,0.0268305540085,0.0844514518976,0.288370132446,0.59705978632,-0.0042661880143
1536679274848078272,5137,1536679274838602567,Quadricopter_base,-1.85190594196,0.0296212434769,0.0700343102217,0.269240796566,0.472444593906,-0.00967419799417
1536679274888837487,5138,1536679274879392878,Quadricopter_base,-1.77963662148,0.033308327198,0.062762491405,0.28087335825,0.319483160973,-0.0163010191172
1536679274935260476,5139,1536679274925526311,Quadricopter_base,-1.69858968258,0.0340819954872,0.0549686066806,0.393746465445,0.359630733728,-0.0298939794302
1536679274980045294,5140,1536679274969994142,Quadricopter_base,-1.60532879829,0.0309737920761,0.0442671887577,0.344130635262,0.395205795765,-0.0120499394834
1536679275028702175,5141,1536679275018863347,Quadricopter_base,-1.49972069263,0.0270004868507,0.0263929497451,0.149841547012,0.386735975742,0.0341949686408
1536679275066918393,5142,1536679275057047113,Quadricopter_base,-1.38279354572,0.0249773263931,0.00988718867302,0.103296779096,0.356636196375,0.0399225614965
1536679275106605907,5143,1536679275096926302,Quadricopter_base,-1.2572261095,0.0249989628792,-0.0083589265123,0.195741966367,0.28371822834,0.00445835804567
1536679275143696398,5144,1536679275136011308,Quadricopter_base,-1.12172365189,0.0248488783836,-0.0254618935287,0.213624417782,0.202779501677,-0.0143409278244
1536679275181053269,5145,1536679275173425086,Quadricopter_base,-0.980390548706,0.0235647559166,-0.0503397062421,0.119344703853,0.147724658251,-0.000608881469816
1536679275221961545,5146,1536679275212804777,Quadricopter_base,-0.830570757389,0.0223328173161,-0.0678360387683,0.0262174829841,0.0839826539159,0.0144690973684
1536679275273391860,5147,1536679275263386004,Quadricopter_base,-0.677798867226,0.021188378334,-0.0814438015223,-0.0194758642465,0.149318441749,0.0356200560927
1536679275315883656,5148,1536679275305942204,Quadricopter_base,-0.524366497993,0.0218547433615,-0.0974261686206,0.0989170968533,0.242353320122,0.00650409329683
1536679275361940562,5149,1536679275351645040,Quadricopter_base,-0.364309489727,0.0244027972221,-0.112931728363,0.195462197065,0.218551009893,-0.0342892445624
1536679275408766247,5150,1536679275398419249,Quadricopter_base,-0.191910147667,0.0274310484529,-0.119431018829,0.203702270985,0.082562930882,-0.0563609674573
1536679275458132652,5151,1536679275447494562,Quadricopter_base,-0.015549339354,0.0276082158089,-0.129662752151,0.148002848029,0.0482128709555,-0.0285646896809
1536679275500659393,5152,1536679275490867504,Quadricopter_base,0.163260370493,0.023099873215,-0.141750574112,0.0200744252652,0.135837778449,0.0433392524719
1536679275537593107,5153,1536679275529987189,Quadricopter_base,0.345939010382,0.0184051077813,-0.153160095215,-0.0630771741271,0.174394547939,0.0752199143171
1536679275569294285,5154,1536679275561994869,Quadricopter_base,0.531421780586,0.0187767464668,-0.170105695724,-0.0598780289292,0.0226772353053,0.026639373973
1536679275606962081,5155,1536679275599487955,Quadricopter_base,0.716705799103,0.0255330782384,-0.192836493254,0.0504283420742,-0.278739273548,-0.0834006890655
1536679275646590046,5156,1536679275638833221,Quadricopter_base,0.901320934296,0.0243710577488,-0.205597877502,-0.069294989109,-0.327462315559,-0.0429708659649
1536679275686443087,5157,1536679275675445540,Quadricopter_base,1.07907629013,0.0142604401335,-0.214664921165,-0.212634637952,-0.276383787394,0.0326164402068
1536679275730662414,5158,1536679275720872044,Quadricopter_base,1.24937522411,0.00460106274113,-0.220186084509,-0.216117441654,-0.353950381279,0.0196244921535
1536679275779086819,5159,1536679275768712374,Quadricopter_base,1.41392350197,-0.00791043136269,-0.214000359178,-0.338512539864,-0.440657407045,0.0271157771349
1536679275825600960,5160,1536679275816054150,Quadricopter_base,1.56899344921,-0.0184136014432,-0.192947357893,-0.369043081999,-0.5431381464,0.00696159154177
1536679275868643379,5161,1536679275858525837,Quadricopter_base,1.7054746151,-0.0254247784615,-0.177810758352,-0.341239571571,-0.614490628242,-0.0186589211226
